%time,field.v,field.h,field.vl,field.actual_v,field.u,field.rpm,field.pwm
1423683670726045630,0.0,1.2364,4.36974737029,0.0,0.907,0.0,1420
1423683670855048296,0.0,1.27012,10.3429269181,0.0,0.907,0.0,1420
1423683670971609963,0.0,1.30384,3.4981693385,0.0,4.44979795614,0.0,1420
1423683671087546630,0.039059592844,1.3488,0.0,0.0,3.23688555158,0.0,1419
1423683671203744630,0.0647445827068,1.39376,0.0,0.0,1.887747442,0.0,1419
1423683671320455963,0.0755538089883,1.44996,0.0,0.0,1.44221168459,0.0,1419
1423683671437345296,0.0814503732164,1.49492,0.0,0.0,1.24349280854,0.0,1419
1423683671554438296,0.085155720792,1.55112,0.0,0.0,1.20771678268,0.0,1419
1423683671670947296,0.0884664292858,1.58484,0.0,0.0,1.12070146009,0.0,1419
1423683671787554630,0.0908176038993,1.6298,0.0,0.0,1.12545355771,0.0,1418
1423683671906143298,0.0932210399216,1.70848,0.00600207914508,0.0,1.56615933541,0.0,1418
1423683672023577298,0.100483152878,1.7422,0.0175416957139,0.0,1.87997706607,0.0,1418
1423683672139679298,0.11120472286,1.78716,0.0659088814027,0.0,4.0785194747,0.0,1418
1423683672257666964,0.146164770389,1.83212,0.296150024793,0.0,4.44965713241,0.0,1417
1423683672373932298,0.185214679427,1.87708,0.574469690207,0.0,4.44962131758,0.0,1417
1423683672490810632,0.224262001306,1.9108,0.71200871455,0.0,4.4495862675,0.0,1417
1423683672610815298,0.263306736197,1.95576,0.777424885381,0.0,4.44955198202,0.0,1416
1423683672728860631,0.302348884274,2.00072,0.840848130905,0.0,4.44951846097,0.0,1415
1423683672847291298,0.341388445706,2.04568,0.866486852514,0.0,4.44948570421,0.0,1415
1423683672965406298,0.380425420667,2.09064,0.888869076464,0.0,4.4494537116,0.0,1414
1423683673086028965,0.419459809328,2.1356,0.897047074772,0.0,4.44942248297,0.0,1413
1423683673205315298,0.458491611862,2.16932,0.84288239603,0.0,4.44939201817,0.0,1412
1423683673323555965,0.497520828439,2.21428,0.876160416869,0.0,4.44936231706,0.0,1411
1423683673442282965,0.536547459232,2.23676,0.764761585705,0.0,4.44933337948,0.0,1410
1423683673559821298,0.575571504413,2.25924,0.695820270335,0.0,4.44930520528,0.0,1408
1423683673676605965,0.614592964153,2.29296,0.726162159791,0.0,4.44927779431,0.0,1407
1423683673796672631,0.653611838625,2.29296,0.705865021628,0.0,4.44925114641,0.0,1406
1423683673913281631,0.692628128,2.29296,0.649369973263,0.0,3.11485306289,0.0,1404
1423683674029471631,0.716930313526,2.29296,0.644246974326,0.0,1.41652233761,0.0,1403
1423683674145432631,0.722506884555,2.29296,0.680845275255,0.0,3.05414567671,0.0,1401
1423683674261531298,0.746138002698,2.29296,0.724885318806,0.0,4.02870088527,0.0,1399
1423683674379060631,0.780512238558,2.29296,0.766671250483,0.0,4.24762437585,0.0,1398
1423683674497041298,0.817298073442,2.28172,0.751361653536,0.0,1.26924919711,0.0,1396
1423683674613752631,0.821244992641,2.28172,0.769005038389,0.0,1.97228688318,0.0,1394
1423683674729575631,0.832942699067,2.28172,0.822520443838,0.82016,4.11577298456,88.0,1394
1423683674845920965,0.868271737987,2.28172,0.867986507619,0.82016,4.44911815836,88.0,1394
1423683674963111965,0.907273805622,2.28172,0.906333344695,0.82016,4.22310620549,88.0,1394
1423683675079344631,0.943781736969,2.28172,0.943380405892,0.82016,4.05858300556,88.0,1394
1423683675201896632,0.978473590914,2.28172,0.979890383201,1.06248,3.95277231657,114.0,1394
1423683675318707298,1.01199677835,2.28172,1.01493531234,1.06248,3.83744879542,114.0,1394
1423683675438760631,1.04424648454,2.28172,1.04802866404,1.06248,3.70223688677,114.0,1394
1423683675554200631,1.07500351091,2.28172,1.07916396933,1.06248,3.55635314038,114.0,1394
1423683675686977298,1.10415028581,2.29296,1.12326890184,1.17432,4.05800050097,126.0,1394
1423683675804805298,1.13882595748,2.29296,1.21560781642,1.17432,4.44898336132,126.0,1394
1423683675921567298,1.17781010027,2.31544,1.32097708859,1.17432,4.4489669552,126.0,1394
1423683676043087298,1.21679166026,2.32668,1.42516986703,1.17432,4.44895130997,126.0,1394
1423683676160020965,1.25577063764,2.33792,1.45478400552,1.23024,4.44893642548,132.0,1394
1423683676277335298,1.29474703258,2.34916,1.44888450688,1.23024,4.44892230158,132.0,1394
1423683676393848965,1.33372084524,2.34916,1.38092937051,1.23024,4.28620963507,132.0,1393
1423683676512513965,1.37089831103,2.3604,1.4013230937,1.23024,3.42566708481,132.0,1393
1423683676637207965,1.39858593969,2.3604,1.40507299999,1.26752,2.25544526835,136.0,1393
1423683676756451631,1.41337009942,2.3604,1.40604962647,1.26752,1.54621611443,136.0,1393
1423683676873468298,1.4203340573,2.3604,1.41489689712,1.26752,1.60024164168,136.0,1392
1423683676992749298,1.42789320974,2.37164,1.50362238935,1.3048,4.44887978269,140.0,1392
1423683677111821965,1.46685820117,2.38288,1.51510316222,1.3048,3.80108948832,140.0,1392
1423683677232037632,1.49867882455,2.38288,1.5679740716,1.3048,4.44886078687,140.0,1391
1423683677349154631,1.53763912628,2.38288,1.55747646483,1.3048,2.20316592494,140.0,1391
1423683677465193298,1.55183810888,2.38288,1.55044058632,1.37936,1.18621094871,148.0,1390
1423683677582035632,1.55482423362,2.38288,1.55462855321,1.37936,1.22688904301,148.0,1390
1423683677699787631,1.55825864516,2.38288,1.56104454932,1.37936,1.3415542522,148.0,1390
1423683677816763631,1.56295702462,2.38288,1.56583941491,1.43528,1.32115909587,154.0,1389
1423683677933294298,1.56743024751,2.37164,1.5062516834,1.43528,-1.73105511965,154.0,1389
1423683678053690298,1.53825244833,2.37164,1.4948325212,1.43528,-0.758893307616,154.0,1389
1423683678169433631,1.51979461404,2.3604,1.44279562134,1.45392,-2.28739467174,156.0,1389
1423683678289513965,1.48448618425,2.3604,1.44947073703,1.45392,-0.1368709622,156.0,1388
1423683678408273965,1.47288957237,2.34916,1.3931684079,1.45392,-2.23747984021,156.0,1388
1423683678526314631,1.4381344232,2.33792,1.33083113246,1.47256,-3.4276649336,158.0,1388
1423683678643880632,1.39025964057,2.33792,1.36296402915,1.47256,0.622616565098,158.0,1389
1423683678761373298,1.38704233918,2.31544,1.23306696878,1.47256,-5.50949315637,158.0,1389
1423683678879029631,1.31621854439,2.29296,1.17398708939,1.47256,-4.72709374939,158.0,1389
1423683678994926965,1.25402514753,2.28172,1.13702904102,1.54712,-3.27703989739,166.0,1390
1423683679114997632,1.20782250321,2.25924,1.06475705939,1.54712,-4.42849507689,166.0,1391
1423683679231952298,1.14892787923,2.248,0.956824210018,1.60304,-6.22820877262,172.0,1392
1423683679350582965,1.07019496388,2.23676,0.92251746048,1.60304,-4.17098852873,172.0,1393
1423683679470062298,1.0141477895,2.22552,0.886305639379,1.60304,-2.97691644222,172.0,1394
1423683679590004298,0.97126871254,2.20304,0.788191717849,1.56576,-5.67061858314,168.0,1396
1423683679709171965,0.898694048087,2.1918,0.719175825604,1.56576,-5.25115937819,168.0,1397
1423683679828631298,0.830748301205,2.16932,0.628391070329,1.56576,-6.22804806618,168.0,1399
1423683679943805632,0.752036367924,2.15808,0.586107693061,1.56576,-4.08538717003,168.0,1401
1423683680062180298,0.69695204256,2.1356,0.495649714071,1.52848,-5.80223450467,164.0,1403
1423683680178737965,0.622942636844,2.12436,0.470785415379,1.52848,-2.94963295182,164.0,1405
1423683680296477965,0.580387648376,2.11312,0.456684809339,1.52848,-1.28638143239,164.0,1407
1423683680413928965,0.556172579147,2.09064,0.365701246058,1.50984,-4.83948661906,162.0,1409
1423683680531684298,0.492785741155,2.0794,0.361798286204,1.50984,-1.4153529323,162.0,1412
1423683680649428298,0.467153836581,2.06816,0.360992632736,1.50984,0.00788068090843,162.0,1414
1423683680765609965,0.457214642033,2.05692,0.413290785832,1.41664,3.4054416291,152.0,1417
1423683680886040298,0.484734321062,2.05692,0.403869068247,1.41664,1.26760551333,152.0,1419
1423683681004033965,0.488682648148,2.04568,0.421908778482,1.41664,1.97538622252,152.0,1421
1423683681121075965,0.500434068458,2.04568,0.435524552586,1.41664,2.02095972848,152.0,1423
1423683681242285965,0.512687258977,2.04568,0.494997665097,1.3048,4.44935098094,140.0,1425
1423683681361198298,0.551712884956,2.04568,0.548412150524,1.3048,4.44932234003,140.0,1427
1423683681480558631,0.590735925389,2.04568,0.592880787827,1.3048,4.44929446245,140.0,1429
1423683681600395631,0.629756380449,2.04568,0.632394467791,1.3048,4.44926734804,140.0,1430
1423683681719798631,0.668774250306,2.05692,0.740736231247,1.15568,4.44924099664,124.0,1432
1423683681842186632,0.707789535134,2.06816,0.849258750477,1.15568,4.44921540811,124.0,1433
1423683681961200298,0.746802235104,2.09064,0.990114128147,1.15568,4.4491905823,124.0,1434
1423683682080066631,0.785812350387,2.11312,1.06804642213,1.15568,4.44916651905,124.0,1435
1423683682197935632,0.824819881155,2.15808,1.0374966526,0.0,4.44914321822,124.0,1433
1423683682314767965,0.86382482758,2.18056,1.14582819172,0.87608,4.44912067965,94.0,1433
1423683682431802632,0.902827189834,2.21428,1.20737066628,0.87608,4.44909890319,94.0,1433
1423683682551628632,0.941826968088,2.25924,1.35913276168,0.87608,4.44907788868,94.0,1433
1423683682673028298,0.980824162515,2.3042,1.53763991158,0.87608,4.44905763599,94.0,1433
1423683682789644298,1.01981877329,2.33792,1.58578697035,0.0,4.44903814495,94.0,1431
1423683682917375965,1.05881080057,2.37164,1.51651876703,0.0,4.44901941542,94.0,1429
1423683683036684965,1.09780024454,2.4166,1.55019869885,0.0,4.44900144724,94.0,1427
1423683683155391632,1.13678710538,2.43908,1.46159237731,0.0,4.44898424027,94.0,1424
1423683683273825965,1.17577138324,2.46156,1.36221780037,0.0,4.44896779435,94.0,1422
1423683683392656298,1.21475307831,2.4728,1.26524510961,0.0,4.44895210932,94.0,1419
1423683683512085965,1.25373219075,2.4728,1.16474995616,0.466,-1.29351585801,50.0,1417
1423683683629930298,1.22939798473,2.4728,1.14777211971,0.466,-0.814284787647,50.0,1416
1423683683746525298,1.21034882424,2.45032,1.07680074731,0.466,-3.41129521376,50.0,1414
1423683683862843632,1.16266870934,2.4166,0.98161521191,0.466,-5.71076893591,50.0,1412
1423683683979835298,1.0896397454,2.37164,0.739614155592,0.0,-6.22818266461,50.0,1410
1423683684098359632,1.01091073975,2.32668,0.479321112007,0.0,-6.22814527917,50.0,1408
1423683684215736632,0.932186925812,2.25924,0.210878158291,0.0,-6.22810479737,50.0,1405
1423683684338751965,0.853468303247,2.20304,0.0311646697334,0.0,-6.22806121983,50.0,1404
1423683684457166298,0.774754871714,2.1356,0.0,0.57784,-6.22801454715,62.0,1403
1423683684577031965,0.696046630875,2.05692,0.0,0.57784,-6.22796477996,62.0,1403
1423683684696186298,0.617343580388,1.98948,0.0,0.57784,-6.22791191887,62.0,1403
1423683684819432298,0.538645719913,1.9108,0.0,0.57784,-6.22785596448,62.0,1403
1423683684940598298,0.459953049111,1.83212,0.0,0.0,-6.22779691741,62.0,1402
1423683685062736298,0.381265567641,1.75344,0.0,0.82016,-6.22773477827,88.0,1402
1423683685181993632,0.302583275163,1.66352,0.0,0.82016,-6.22766954768,88.0,1403
1423683685303355632,0.223906171338,1.50616,0.0,0.82016,-6.22760122624,88.0,1404
1423683685419142632,0.145234255824,1.49492,0.0,0.82016,-2.46872872397,88.0,1406
1423683685536524632,0.10800856035,1.49492,0.0,0.0,-0.311319490179,88.0,1407
1423683685652411965,0.0945705206256,1.52864,0.0,0.91336,0.580930054261,98.0,1407
1423683685768529965,0.0909703397671,1.59608,0.00652252883714,0.91336,1.3656957309,98.0,1409
1423683685886556965,0.0960224533315,1.66352,0.144694411561,0.91336,4.44970423877,98.0,1411
1423683686003542965,0.135075684431,1.7422,0.442729250483,0.91336,4.44966744182,98.0,1413
1423683686121666965,0.174126328151,1.80964,0.746913271107,0.0,4.44963140981,98.0,1414
1423683686244174965,0.213174384662,1.86584,0.872274053306,0.91336,4.44959614259,98.0,1415
1423683686363197965,0.252219854137,1.9108,0.833718181661,0.91336,4.44956164,98.0,1416
1423683686483101965,0.291262736748,1.95576,0.736868081739,0.91336,4.4495279019,98.0,1418
1423683686602288632,0.330303032667,1.98948,0.623578618743,0.91336,4.44949492813,98.0,1419
1423683686719504965,0.369340742065,2.01196,0.490258177908,0.0,4.44946271855,98.0,1419
1423683686841588965,0.408375865115,2.05692,0.477982884562,0.0,4.44943127299,98.0,1419
1423683686958623632,0.447408401987,2.0794,0.55880712016,0.80152,4.44940059131,86.0,1419
1423683687075421298,0.486438352855,2.11312,0.691530127932,0.80152,4.44937067336,86.0,1419
1423683687193263298,0.525465717891,2.11312,0.788976684142,0.80152,4.44934151898,86.0,1420
1423683687315114298,0.564490497264,2.1356,0.73740676809,0.80152,4.44931312803,86.0,1421
1423683687437715965,0.603512691149,2.1356,0.704148689893,0.0,4.44928550034,86.0,1420
1423683687558380298,0.642532299716,2.1356,0.623478292976,0.0,4.10101133772,86.0,1419
1423683687677529298,0.677709879132,2.1356,0.599902908359,0.0,0.805134432057,86.0,1417
1423683687793533632,0.676548181292,2.12436,0.561124323518,0.0,-1.21765125166,86.0,1416
1423683687910162298,0.65308523786,2.11312,0.527285013579,0.0,-1.70231197609,86.0,1414
1423683688030011298,0.624280263042,2.0794,0.356209004099,0.54056,-6.22791670236,58.0,1414
1423683688148542632,0.545581945133,2.04568,0.193964560579,0.54056,-6.22786102059,58.0,1414
1423683688277167632,0.466888816927,2.01196,0.0981940668852,0.54056,-6.22780224608,58.0,1414
1423683688398128298,0.388200878082,1.92204,0.0,0.54056,-6.22774037946,58.0,1415
1423683688516133965,0.30951812826,1.86584,0.0,0.0,-6.22767542132,58.0,1414
1423683688634472633,0.23084056712,1.82088,0.0,0.0,-6.22760737229,58.0,1413
1423683688753721300,0.152168194322,1.76468,0.0,0.0,-2.10798143372,58.0,1413
1423683688872960300,0.118919374251,1.70848,0.0,0.0,-0.300233284938,58.0,1413
1423683688992337967,0.105602952773,1.66352,0.0,0.0,0.353127825006,58.0,1412
1423683689111226634,0.0994906230003,1.60732,0.0,0.52192,0.539679486765,56.0,1413
1423683689230268300,0.095435378071,1.56236,0.0,0.52192,0.637101724251,56.0,1414
1423683689347832966,0.0924544455136,1.50616,0.0,0.52192,0.633566049135,56.0,1415
1423683689464115633,0.0894346977465,1.44996,0.0,0.52192,0.630356510779,56.0,1416
1423683689581842300,0.0863797325583,1.39376,0.0,0.0,0.62722968715,56.0,1416
1423683689710667300,0.0832904637915,1.3488,0.0,0.0,0.660619109301,56.0,1416
1423683689832739967,0.0805694873669,1.27012,0.0,0.0,0.561095670301,56.0,1416
1423683689950070966,0.0767514095275,1.25888,0.0,0.0,0.743386396982,56.0,1416
1423683690066732633,0.0749433113381,1.24764,0.0,0.5592,0.810084190702,60.0,1417
1423683690183367300,0.0738706612454,1.21392,0.0,0.5592,0.760072412371,60.0,1418
1423683690300703300,0.0722466874869,1.1802,0.0,0.5592,0.741041375231,60.0,1419
1423683690420131300,0.0704129854273,1.1802,0.0,0.5592,0.845563020647,60.0,1420
1423683690536325300,0.0697317433715,1.2364,0.0,0.0,1.07178010348,60.0,1420
1423683690656291967,0.0715445977628,1.30384,0.0,0.0,1.19186122798,60.0,1420
1423683690772247967,0.0746812540102,1.42748,0.0,0.0,1.41911403603,60.0,1420
1423683690889280633,0.0803232135816,1.52864,0.141693024847,0.0,4.44971924588,60.0,1420
1423683691007315300,0.119377484798,1.65228,0.564584642892,0.0,4.4496821414,60.0,1420
1423683691126765967,0.158429168565,1.7422,0.87720924992,0.48464,4.44964580192,52.0,1420
1423683691246986300,0.197478265054,1.8546,1.1858266965,0.48464,4.44961022729,52.0,1420
1423683691369542966,0.236524774438,1.94452,1.17825976933,0.48464,4.44957541736,52.0,1421
1423683691487485967,0.275568696889,2.09064,1.10831678805,0.48464,4.44954137197,52.0,1422
1423683691606076300,0.314610032579,2.15808,0.978648731516,0.0,4.44950809098,52.0,1422
1423683691726754967,0.353648781678,2.20304,0.909613064459,0.0,4.44947557423,52.0,1421
1423683691843535633,0.392684944361,2.248,0.818187609967,0.0,4.44944382156,52.0,1420
1423683691960099966,0.431718520797,2.27048,0.700083375559,0.0,4.44941283284,52.0,1419
1423683692076818633,0.47074951116,2.29296,0.597440122595,0.0,4.44938260791,52.0,1418
1423683692199070300,0.50977791562,2.29296,0.489764667164,0.0,4.44935314661,52.0,1417
1423683692315363300,0.54880373435,2.29296,0.417911955745,0.0,-1.01137888306,52.0,1416
1423683692432782967,0.527622420505,2.29296,0.434227238963,0.0,1.14915159347,52.0,1415
1423683692549871633,0.530262302356,2.28172,0.408076946502,0.41008,-0.487570297148,44.0,1414
1423683692668311633,0.514857083021,2.25924,0.30542226574,0.41008,-5.30138254494,44.0,1414
1423683692785575967,0.446380209215,2.22552,0.14202721749,0.41008,-6.22778641995,44.0,1414
1423683692903769300,0.367693622797,2.1918,0.0126148523187,0.41008,-6.22772374753,44.0,1414
1423683693022461634,0.289012225312,2.14684,0.0,0.0,-6.22765798377,44.0,1413
1423683693140948300,0.210336016421,2.04568,0.0,0.0,-4.83017304699,44.0,1413
1423683693260976300,0.147071598764,2.00072,0.0,0.0,-1.13378294302,44.0,1412
1423683693380389300,0.124563665969,1.95576,0.0,0.0,0.103896678892,44.0,1412
1423683693498596300,0.115702489377,1.89956,0.0,0.52192,0.472989418859,56.0,1412
1423683693615920300,0.110911078894,1.8546,0.0,0.52192,0.625748615783,56.0,1413
1423683693734764633,0.107804115777,1.7984,0.0,0.52192,0.639877414983,56.0,1414
1423683693856178633,0.104853096732,1.7422,0.0,0.52192,0.642649381415,56.0,1415
1423683693975902633,0.101932803184,1.686,0.0,0.0,0.64166829843,56.0,1416
1423683694096416967,0.0990018557554,1.6298,0.0,0.0,0.639416029106,56.0,1416
1423683694211460634,0.0960462400769,1.5736,0.0,0.0,0.636710115656,56.0,1415
1423683694328612967,0.093060956017,1.52864,0.0,0.0,0.669650400814,56.0,1415
1423683694445127967,0.0904390069052,1.49492,0.0,0.0,0.715808186224,56.0,1415
1423683694562555967,0.0883260963169,1.44996,0.0,0.5592,0.695064893591,60.0,1416
1423683694680391300,0.0859846070393,1.405,0.0,0.5592,0.686500726646,60.0,1417
1423683694799617300,0.0835488274317,1.31508,0.0,0.5592,0.536178556554,60.0,1418
1423683694924265634,0.0794558711814,1.2926,0.0,0.5592,0.698598243454,60.0,1420
1423683695043000967,0.0771538303459,1.27012,0.0,0.0,0.757241821405,60.0,1419
1423683695159243633,0.0754984667927,1.27012,0.0,0.0,0.852379565899,60.0,1419
1423683695279435300,0.0748920952332,1.25888,0.0,0.0,0.850131838388,60.0,1419
1423683695399532633,0.074260976003,1.24764,0.0,0.0,0.849225105021,60.0,1419
1423683695517718967,0.0736198950254,1.24764,0.0,0.0,0.886007371921,60.0,1419
1423683695635732633,0.0733843766235,1.24764,0.0,0.0,0.899522236638,60.0,1419
1423683695751932300,0.0732978735958,1.24764,0.0,0.466,0.904486338285,50.0,1420
1423683695868999300,0.0732661049274,1.25888,0.0,0.466,0.943534193282,50.0,1420
1423683695987186300,0.0736648432606,1.25888,0.0,0.466,0.920624803753,50.0,1421
1423683696106402633,0.0738109818853,1.27012,0.0,0.466,0.949415481232,50.0,1422
1423683696224363967,0.0742745315571,1.27012,0.0,0.0,0.92275461727,50.0,1422
1423683696343578634,0.0744441176615,1.27012,0.0,0.0,0.913001935221,50.0,1422
1423683696465184634,0.0745061703702,1.27012,0.0,0.0,0.909433495248,50.0,1422
1423683696583162967,0.0745288773412,1.27012,0.0,0.0,0.908127712435,50.0,1422
1423683696700956634,0.0745371867075,1.27012,0.0,0.0,0.907649877953,50.0,1422
1423683696817879300,0.074540227455,1.27012,0.0,0.0,0.907475018489,50.0,1421
1423683696941751967,0.0745413401962,1.27012,0.0,0.0,0.90741102988,50.0,1421
1423683697061436300,0.0745417473969,1.27012,0.0,0.0,0.907387613655,50.0,1421
1423683697180502300,0.0745418964095,1.28136,0.0,0.3728,0.944513776792,40.0,1422
1423683697299116967,0.0749513638674,1.31508,0.0,0.3728,1.03225740717,40.0,1422
1423683697417145634,0.076328188027,1.33756,0.0,0.3728,1.02673948848,40.0,1423
1423683697533800634,0.0776441002842,1.3488,0.0,0.3728,0.987485784204,40.0,1424
1423683697652002634,0.0785271647044,1.38252,0.0,0.0,1.04688735466,40.0,1424
1423683697768064300,0.0800650863774,1.405,0.0,0.0,1.03098890629,40.0,1424
1423683697885860300,0.0814276411305,1.44996,0.0,0.0,1.09823327026,40.0,1424
1423683698005881634,0.0835314937955,1.5174,0.00443569154212,0.0,1.43526315411,40.0,1424
1423683698123286300,0.0893510066148,1.53988,0.0114482422086,0.0,1.54716848551,40.0,1423
1423683698241341967,0.0964039595381,1.56236,0.0377318694793,0.0,2.63720504932,40.0,1423
1423683698359571300,0.115474245635,1.58484,0.117017597946,0.0,4.44968581547,40.0,1423
1423683698476123967,0.154526188002,1.59608,0.209864227718,0.0,4.44964939954,40.0,1423
1423683698596235300,0.193575543074,1.6298,0.367896469018,0.0,4.44961374847,40.0,1422
1423683698713966967,0.232622311024,1.65228,0.530109853411,0.0,4.44957886212,40.0,1422
1423683698821220300,0.271666492023,1.67476,0.593799432669,0.31688,4.44954474032,34.0,1422
1423683698939744967,0.310708086244,1.686,0.524753621491,0.31688,4.44951138293,34.0,1422
1423683699058042300,0.349747093858,1.70848,0.519063193853,0.31688,4.44947878981,34.0,1422
1423683699175371967,0.388783515037,1.70848,0.443526099516,0.31688,4.44944696078,34.0,1421
1423683699293940634,0.427817349953,1.73096,0.519204828334,0.0,4.44941589571,34.0,1421
1423683699414670300,0.466848598778,1.7422,0.582832691651,0.0,4.44938559445,34.0,1420
1423683699532844967,0.505877261684,1.75344,0.620902156842,0.0,4.44935605683,34.0,1419
1423683699654753300,0.544903338842,1.77592,0.725046117937,0.0,4.44932728272,34.0,1418
1423683699771834967,0.583926830425,1.80964,0.765646497375,0.0,4.44929927195,34.0,1416
1423683699893829967,0.622947736604,1.82088,0.830929843353,0.0,4.44927202438,34.0,1415
1423683700013777300,0.661966057552,1.84336,0.86032806859,0.0,4.44924553985,34.0,1413
1423683700133437967,0.700981793439,1.8546,0.900887565234,0.0,4.44921981822,34.0,1412
1423683700252010634,0.739994944438,1.88832,0.995885125782,0.41008,4.44919485933,44.0,1411
1423683700369666967,0.77900551072,1.9108,1.10040097467,0.41008,4.44917066303,44.0,1410
1423683700486742634,0.818013492458,1.94452,1.18797589011,0.41008,4.44914722917,44.0,1410
1423683700605283300,0.857018889823,1.967,1.19545300454,0.41008,4.4491245576,44.0,1409
1423683700729274634,0.896021702986,2.01196,1.30722131088,0.0,4.44910264816,44.0,1407
1423683700848458300,0.93502193212,2.04568,1.36426337131,0.0,4.44908150071,44.0,1405
1423683700968003967,0.974019577397,2.0794,1.35271592198,0.0,4.4490611151,44.0,1403
1423683701087298634,1.01301463899,2.12436,1.40093568016,0.61512,4.44904149117,66.0,1401
1423683701207564300,1.05200711706,2.1918,1.40394462344,0.61512,4.44902262877,66.0,1400
1423683701329561300,1.0909970118,2.22552,1.43691142513,0.61512,4.44900452775,66.0,1399
1423683701446568300,1.12998432336,2.27048,1.5240476198,0.61512,4.44898718796,66.0,1398
1423683701563989300,1.16896905192,2.3042,1.61195407693,0.0,4.44897060925,66.0,1396
1423683701687518967,1.20795119766,2.32668,1.58822809557,0.0,4.44895479147,66.0,1393
1423683701805731300,1.24693076074,2.37164,1.63916026653,0.8388,4.44893973446,90.0,1393
1423683701922340634,1.28590774133,2.40536,1.68806600253,0.8388,4.44892543808,90.0,1392
1423683702039081967,1.32488213961,2.43908,1.70262838413,0.8388,4.44891190217,90.0,1391
1423683702158746634,1.36385395576,2.4728,1.71642155805,0.8388,4.44889912659,90.0,1389
1423683702275270967,1.40282318993,2.50652,1.74658836854,1.00656,4.44888711118,108.0,1387
1423683702395105634,1.4417898423,2.529,1.70016641368,1.00656,4.44887585579,108.0,1386
1423683702513338967,1.48075391305,2.56272,1.74572999003,1.00656,4.44886536027,108.0,1385
1423683702633572634,1.51971540234,2.59644,1.80461629574,1.00656,4.44885562447,108.0,1384
1423683702753295634,1.55867431035,2.61892,1.78231655669,1.15568,4.44884664823,124.0,1383
1423683702871108967,1.59763063725,2.67512,1.87689850318,1.15568,4.44883843142,124.0,1382
1423683702987650634,1.6365843832,2.70884,1.9175411199,1.15568,4.44883097387,124.0,1381
1423683703113227300,1.67553554839,2.73132,1.9971983191,1.15568,4.44882427544,124.0,1380
1423683703231093634,1.71448413299,2.7538,2.01627082744,1.28616,4.44881833597,138.0,1379
1423683703348149300,1.75343013715,2.76504,1.95552935324,1.28616,3.33413469153,138.0,1378
1423683703470997300,1.7800842105,2.78752,1.93975054292,1.28616,1.67236404304,138.0,1377
1423683703588166300,1.78841550193,2.79876,1.94246464932,1.45392,1.34516928867,156.0,1376
1423683703705767300,1.79313892395,2.81,1.91784186262,1.45392,1.24660182193,156.0,1375
1423683703825240967,1.79677533083,2.82124,1.90073855588,1.45392,1.27775873292,156.0,1375
1423683703942214300,1.80075500673,2.82124,1.82568682004,1.64032,0.619317028665,176.0,1374
1423683704068525967,1.79747509236,2.82124,1.7641216716,1.64032,0.0234524955429,176.0,1374
1423683704185433967,1.78762597416,2.83248,1.82069730938,1.64032,2.25019712845,176.0,1373
1423683704303942634,1.80232739558,2.83248,1.81072250076,1.78944,0.849919100862,192.0,1373
1423683704422546634,1.80158977083,2.83248,1.79499698388,1.78944,0.857519388702,192.0,1373
1423683704541526300,1.80093598738,2.83248,1.78874561667,1.90128,0.893938178777,204.0,1374
1423683704656983634,1.80068376426,2.82124,1.75714206684,1.90128,-0.47631888604,204.0,1374
1423683704780510967,1.78532444903,2.82124,1.71512646406,1.90128,-1.67002230544,204.0,1374
1423683704897317300,1.7568055294,2.81,1.68730541289,1.99448,-1.54121104428,214.0,1375
1423683705015094300,1.72970860484,2.81,1.67345563935,1.99448,-0.778705175503,214.0,1375
1423683705133425634,1.71102007501,2.79876,1.636893535,2.03176,-1.58756089956,218.0,1376
1423683705251941300,1.68341510064,2.79876,1.63454277491,2.03176,-0.238774000367,218.0,1377
1423683705372845968,1.6706823087,2.78752,1.5907524337,2.0504,-1.71887473882,220.0,1378
1423683705489464635,1.64163219306,2.78752,1.60041879919,2.0504,0.297554122495,220.0,1379
1423683705607015968,1.63481511552,2.78752,1.62682309481,2.06904,1.95033903806,222.0,1380
1423683705724915302,1.64622046592,2.79876,1.71926701182,2.06904,4.44882924613,222.0,1381
1423683705844861635,1.6851709927,2.79876,1.72302467375,2.06904,3.73900395599,222.0,1382
1423683705968757968,1.71629317245,2.81,1.7898018252,2.0504,4.44881807853,220.0,1382
1423683706086310969,1.75523905677,2.82124,1.80319326491,2.0504,3.90942131602,220.0,1383
1423683706204851302,1.78823555839,2.84372,1.90937731459,2.01312,2.97020538432,216.0,1384
1423683706322193302,1.8108750439,2.8662,2.06740246184,2.01312,2.35144350752,216.0,1384
1423683706438805968,1.82669119528,2.91116,2.26073584327,1.91992,3.35691550089,206.0,1385
1423683706560951302,1.85359166087,2.95612,2.42584358511,1.91992,3.14421772983,206.0,1385
1423683706680616968,1.87814537255,3.01232,2.5944100048,1.91992,3.57785764581,206.0,1385
1423683706798883635,1.90747836311,3.06852,2.66302598823,1.88264,3.18656376414,202.0,1385
1423683706918451302,1.93249540783,3.11348,2.60927865551,1.88264,2.28189709636,202.0,1385
1423683707037914302,1.94753684487,3.16968,2.54846872559,1.88264,2.67463019403,202.0,1385
1423683707153946635,1.96690717884,3.23712,2.59873649592,1.84536,1.95971006058,198.0,1384
1423683707270131635,1.9783942316,3.29332,2.59306698369,1.84536,1.43878952079,198.0,1384
1423683707386494969,1.9841373705,3.372,2.70725542627,1.80808,1.17834684764,194.0,1384
1423683707503091635,1.98700874632,3.43944,2.72550408467,1.80808,1.04813429774,194.0,1383
1423683707624695969,1.98844433745,3.51812,2.73559220636,1.80808,0.983032413057,194.0,1383
1423683707740987636,1.98916208464,3.66424,2.77189934871,1.80808,0.950483665004,194.0,1382
1423683707860953636,1.98952093405,3.74292,2.7370736202,1.80808,0.934210387876,194.0,1382
1423683707979172968,1.98970034666,3.81036,2.79381899899,1.82672,0.92607429768,196.0,1382
1423683708095037969,1.98979004692,3.90028,2.82409007984,1.82672,0.922006526737,196.0,1381
1423683708214360302,1.98983489403,3.96772,2.8717385481,1.82672,0.919972778331,196.0,1381
1423683708330441968,1.98985731607,4.06888,2.96824328428,1.864,0.918955972655,200.0,1381
1423683708446479635,1.98986852634,4.14756,3.021640897,1.864,0.918447604079,200.0,1380
1423683708562944969,1.98987413109,4.22624,2.94527000233,1.90128,0.91819343692,204.0,1380
1423683708679356635,1.98987693328,4.31616,2.85899455442,1.90128,0.918066361905,204.0,1380
1423683708795324302,1.98987833428,4.39484,2.89799110258,1.90128,0.918002828679,204.0,1380
1423683708914300302,1.98987903474,4.48476,2.92955518515,1.93856,0.917971064207,208.0,1380
1423683709029670302,1.98987938494,4.57468,2.9576970678,1.93856,0.917955183041,208.0,1380
1423683709145181969,1.98987956003,4.64212,2.82747592026,1.9572,0.917947242993,210.0,1380
1423683709262138969,1.98987964757,4.7208,2.70269991877,1.9572,0.917943273237,210.0,1379
1423683709378502635,1.98987969133,4.81072,2.79211883124,1.9572,0.917941288492,210.0,1379
1423683709498149635,1.98987971322,4.8894,2.77659424838,2.03176,0.917940296187,218.0,1379
1423683709615212635,1.98987972416,4.96808,2.74663439676,2.03176,0.917939800068,218.0,1380
1423683709732096636,1.98987972962,5.058,2.76884446874,2.06904,0.917939552025,222.0,1380
1423683709849436635,1.98987973236,5.13668,2.71666207238,2.06904,0.917939428012,222.0,1380
1423683709965337302,1.98987973373,5.2828,2.64550726531,2.06904,0.91793936601,222.0,1380
1423683710084874969,1.98987973441,5.36148,2.7485199156,2.06904,0.91793933501,222.0,1380
1423683710201667636,1.98987973475,5.44016,2.83093987484,2.06904,0.917939319512,222.0,1381
1423683710318763969,1.98987973492,5.49636,2.83258760649,2.06904,0.917939311763,222.0,1381
1423683710435055635,1.98987973501,5.5638,2.7141796453,2.06904,0.917939307889,222.0,1381
1423683710553363969,1.98987973505,5.63124,2.67089507931,2.08768,0.917939305952,224.0,1381
1423683710672351969,1.98987973507,5.69868,2.7041652198,2.08768,0.917939304984,224.0,1381
1423683710792607636,1.98987973508,5.76612,2.72417265191,2.12496,0.9179393045,228.0,1382
1423683710913878636,1.98987973509,5.82232,2.68011753396,2.12496,0.917939304258,228.0,1382
1423683711032023969,1.98987973509,5.88976,2.67154777569,2.12496,0.917939304136,228.0,1382
1423683711157287635,1.98987973509,5.94596,2.60715234304,2.12496,0.917939304076,228.0,1383
1423683711274007302,1.98987973509,6.00216,2.53394638167,2.12496,2.07006354504,228.0,1383
1423683711390974969,2.00258191875,6.04712,2.3851660964,2.12496,4.44879795781,228.0,1383
1423683711515092969,2.04150883585,6.10332,2.39081800391,2.12496,3.75379221865,228.0,1384
1423683711639603635,2.07277072398,6.21572,2.58701953909,2.06904,-1.02274191635,222.0,1384
1423683711755217635,2.05136919658,6.26068,2.70951432517,2.06904,-1.87051367833,222.0,1384
1423683711872600302,2.02062239811,6.31688,2.68813734363,2.0504,-0.476193655059,220.0,1384
1423683711988712635,2.00525003177,6.37308,2.65990176179,2.0504,0.220919693472,220.0,1384
1423683712108917635,1.99756436579,6.41804,2.58047581325,1.99448,0.965536584545,214.0,1384
1423683712229835302,1.9980886183,6.463,2.47880864894,1.99448,3.33495531135,214.0,1384
1423683712347197635,2.02473570531,6.5192,2.50731072781,1.99448,2.09778968942,214.0,1384
1423683712466031635,2.03774126172,6.56416,2.54557449701,1.93856,0.931589139835,208.0,1383
1423683712584799636,2.03788858162,6.58664,2.40176774251,1.93856,4.34513996199,208.0,1383
1423683712703297636,2.07567032519,6.60912,2.23870195628,1.91992,3.12522009989,206.0,1383
1423683712829043302,2.09999992633,6.62036,2.11291963258,1.91992,0.918600305542,206.0,1383
1423683712949980635,2.09999990214,6.62036,2.00694473773,1.90128,0.91860249941,204.0,1382
1423683713068267969,2.09999990214,6.60912,1.97486347339,1.90128,0.918602499408,204.0,1382
1423683713188785635,2.09999990214,6.58664,1.91012952176,1.90128,0.918602499408,204.0,1381
1423683713305807636,2.09999990214,6.56416,1.80029911712,1.88264,-6.22838735356,202.0,1381
1423683713430429302,2.02120426939,6.49672,1.61152052286,1.88264,-6.22838974115,202.0,1380
1423683713547383969,1.94241383272,6.41804,1.12659139483,1.82672,-6.22838902452,196.0,1380
1423683713664496302,1.86362859178,6.33936,0.78875353668,1.82672,-6.22838520427,196.0,1380
1423683713782200969,1.78484854625,6.26068,0.643590933176,1.82672,-6.22837828102,196.0,1380
1423683713902912302,1.70607369577,6.17076,0.602651578548,1.78944,-6.22836825539,192.0,1380
1423683714020576635,1.62730404001,6.08084,0.565667292098,1.78944,-6.22835512799,192.0,1381
1423683714140206969,1.54853957863,5.97968,0.494145346488,1.78944,-6.22833889943,192.0,1381
1423683714260236635,1.46978031128,5.87852,0.400173529082,1.78944,-6.22831957033,192.0,1382
1423683714383168636,1.39102623763,5.76612,0.271502798777,1.78944,-6.2282971413,192.0,1383
1423683714503565969,1.31227735734,5.65372,0.207625173275,1.7708,-6.22827161295,190.0,1384
1423683714627635302,1.23353367006,5.36148,0.0180569911931,1.7708,-6.2282429859,190.0,1385
1423683714746227302,1.15479517546,5.2266,0.0,1.7708,-6.22821126076,190.0,1387
1423683714863202302,1.0760618732,5.1142,0.0,1.73352,-6.22817643814,186.0,1388
1423683714979556302,0.997333762924,5.02428,0.0,1.73352,-6.22813851866,186.0,1390
1423683715096723636,0.918610844307,4.9456,0.0,1.73352,-6.22809750293,186.0,1392
1423683715213824302,0.839893117005,4.8894,0.0,1.64032,-6.22805339156,176.0,1394
1423683715335855969,0.761180580677,4.8332,0.0,1.64032,-6.22800618517,176.0,1396
1423683715454059636,0.682473234983,4.79948,0.0241040443735,1.64032,-6.22795588437,176.0,1398
1423683715575247302,0.603771079583,4.777,0.195771366398,1.52848,-6.22790248976,164.0,1400
1423683715692812969,0.525074114136,4.76576,0.394897589779,1.52848,4.44934180773,164.0,1402
1423683715812159302,0.564098919455,4.76576,0.574719154958,1.52848,4.44931340912,164.0,1405
1423683715935035969,0.603121139283,4.76576,0.676549756695,1.36072,4.44928577378,146.0,1407
1423683716052440969,0.642140773791,4.777,0.789495461459,1.36072,4.44925890156,146.0,1409
1423683716178314636,0.681157823153,4.78824,0.784147306073,1.36072,4.44923279231,146.0,1410
1423683716297494636,0.720172287538,4.78824,0.819186176153,1.36072,4.44920744589,146.0,1412
1423683716418446969,0.75918416712,4.78824,0.790340109722,1.13704,4.44918286212,122.0,1413
1423683716536740636,0.79819346207,4.79948,0.820144911876,1.13704,4.44915904088,122.0,1414
1423683716654806302,0.837200172559,4.79948,0.875219783033,1.13704,4.449135982,122.0,1415
1423683716773383302,0.87620429876,4.81072,0.949280803231,1.13704,4.44911368534,122.0,1415
1423683716892078302,0.915205840845,4.81072,0.978314349725,0.0,4.44909215073,122.0,1415
1423683717008515302,0.954204798984,4.82196,1.03869754739,0.0,4.44907137804,122.0,1412
1423683717126988636,0.99320117335,4.82196,1.04417315083,0.85744,4.44905136711,92.0,1412
1423683717249325636,1.03219496411,4.82196,1.0326422112,0.85744,4.44903211779,92.0,1412
1423683717367489302,1.07118617145,4.81072,0.968454908827,0.85744,4.44901362992,92.0,1411
1423683717492000302,1.11017479553,4.81072,1.0192295898,0.85744,4.44899590337,92.0,1411
1423683717616736302,1.14916083652,4.777,0.95077937117,0.0,-0.573611823895,92.0,1408
1423683717734175636,1.13277004942,4.73204,0.881864888016,0.0,-4.05329543004,92.0,1406
1423683717851127636,1.07801662569,4.67584,0.624901804328,0.68968,-6.22817734022,74.0,1404
1423683717968326636,0.999288386516,4.6084,0.314165415706,0.68968,-6.22813949763,74.0,1403
1423683718089231969,0.920565339003,4.5522,0.0847769987325,0.68968,-6.22809855876,74.0,1403
1423683718208154636,0.841847482813,4.48476,0.0,0.68968,-6.22805452425,74.0,1403
1423683718325419969,0.763134817606,4.41732,0.000831425515989,0.0,-6.22800739469,74.0,1402
1423683718444664636,0.684427343042,4.34988,0.0028746116881,0.0,-6.22795717071,74.0,1400
1423683718562589302,0.60572505878,4.2712,0.0,0.0,-6.22790385291,74.0,1399
1423683718682898302,0.52702796448,4.19252,0.0,0.76424,-6.22784744191,82.0,1399
1423683718800370636,0.448336059802,4.11384,0.0,0.76424,-6.22778793831,82.0,1400
1423683718923038969,0.369649344406,4.03516,0.0,0.76424,-6.22772534274,82.0,1401
1423683719041063636,0.290967817953,3.96772,0.0,0.76424,-5.86005937883,82.0,1402
1423683719158313302,0.216344296191,3.85532,0.0,0.0,-0.822142476538,82.0,1401
1423683719276854969,0.197268335427,3.81036,0.0,0.85744,0.424101253777,92.0,1403
1423683719396609302,0.191933364113,3.7654,0.0,0.85744,0.688779757086,92.0,1404
1423683719514611969,0.18951679002,3.73168,0.0,0.85744,0.773370879321,92.0,1406
1423683719634234302,0.18803297422,3.7092,0.0,0.85744,0.820256725522,92.0,1408
1423683719751365969,0.18706616122,3.68672,0.0,0.0,0.830258616224,92.0,1408
1423683719868962636,0.186209674,3.67548,0.0,0.0,0.861483217537,92.0,1408
1423683719986661636,0.185697488109,3.66424,0.0,0.82016,0.868329861115,88.0,1409
1423683720102127302,0.185260815663,3.66424,0.0,0.82016,0.899112172687,88.0,1411
1423683720218394969,0.185163544699,3.66424,0.0,0.82016,0.9059695634,88.0,1412
1423683720340132302,0.185141882369,3.66424,0.0,0.82016,0.907496734048,88.0,1414
1423683720459040302,0.18513705841,3.653,0.0,0.0,0.878506731961,88.0,1414
1423683720576789636,0.184812618085,3.64176,0.0,0.0,0.872004586399,88.0,1413
1423683720693959969,0.184416509403,3.64176,0.0,0.0,0.899877807607,88.0,1413
1423683720811676302,0.184327727015,3.63052,0.0,0.6524,0.876738384729,70.0,1414
1423683720930867302,0.183983835987,3.61928,0.0,0.6524,0.871504296936,70.0,1415
1423683721046845969,0.18358225811,3.5968,0.0,0.6524,0.840832110785,70.0,1416
1423683721163755969,0.18284253995,3.56308,0.0,0.6524,0.804218279288,70.0,1417
1423683721280546302,0.181699193465,3.52936,0.0,0.0,0.795438735795,70.0,1417
1423683721399281302,0.180459116119,3.49564,0.0,0.0,0.792924191087,70.0,1416
1423683721518004969,0.17919138535,3.46192,0.0,0.0,0.791830089152,70.0,1416
1423683721636984636,0.177911663173,3.41696,0.0,0.0,0.761217615096,70.0,1416
1423683721754791302,0.176294508295,3.38324,0.0,0.0,0.783090072348,70.0,1415
1423683721871788969,0.174918589388,3.33828,0.0,0.48464,0.757698257824,52.0,1415
1423683721988893302,0.173262801261,3.29332,0.0,0.48464,0.750703201722,52.0,1416
1423683722105761302,0.171529985046,3.24836,0.0,0.48464,0.74807195609,52.0,1417
1423683722226818304,0.169768256338,3.21464,0.0,0.48464,0.776895198501,52.0,1418
1423683722343379971,0.16832440451,3.16968,0.0,0.48464,0.752968085524,52.0,1418
1423683722460977971,0.166616835643,3.1472,0.0,0.0,0.8073263528,52.0,1418
1423683722579959970,0.165508665896,3.10224,0.0,0.0,0.759378927471,52.0,1418
1423683722698744637,0.163871934775,3.02356,0.0,0.0,0.653787129942,52.0,1417
1423683722818045970,0.161071138933,2.9786,0.0,0.0,0.717023413235,52.0,1417
1423683722935442637,0.158967684109,2.93364,0.0,0.0,0.732520046905,52.0,1417
1423683723055546971,0.157035198476,2.89992,0.0,0.0,0.766915053706,52.0,1416
1423683723171715971,0.155482028237,2.85496,0.0,0.42872,0.744088378874,46.0,1417
1423683723287430971,0.15367727937,2.81,0.0,0.42872,0.736960564771,46.0,1418
1423683723408680304,0.151794046904,2.77628,0.0,0.42872,0.765695304658,46.0,1418
1423683723527595304,0.150227722212,2.73132,0.0,0.42872,0.741191692524,46.0,1419
1423683723644169637,0.148391331237,2.68636,0.0,0.0,0.733411720177,46.0,1419
1423683723763742971,0.146469268292,2.65264,0.0,0.0,0.762266894427,46.0,1419
1423683723881014638,0.144865443039,2.60768,0.0,0.0,0.737620296371,46.0,1419
1423683723997353971,0.14298997712,2.56272,0.0,0.0,0.729596915278,46.0,1418
1423683724117255304,0.141026157764,2.529,0.0,0.0,0.758687485856,46.0,1418
1423683724240035970,0.139383173639,2.48404,0.0,0.0,0.733923384311,46.0,1418
1423683724360263304,0.137467255503,2.4166,0.0,0.0,0.660272184422,46.0,1417
1423683724476198637,0.134739435116,2.37164,0.0,0.42872,0.702121304736,46.0,1418
1423683724592370638,0.132473156434,2.32668,0.0,0.42872,0.713456533675,46.0,1419
1423683724716597304,0.130331975981,2.29296,0.0,0.42872,0.74894576112,46.0,1419
1423683724832817637,0.128582186173,2.248,0.0,0.42872,0.725742598838,46.0,1420
1423683724951436304,0.126576677668,2.20304,0.0,0.0,0.717564641476,46.0,1420
1423683725069133304,0.124481118598,2.16932,0.0,0.0,0.747537188265,46.0,1420
1423683725186363304,0.122716125793,2.1356,0.0,0.0,0.756191039605,46.0,1419
1423683725302545304,0.121046640762,2.10188,0.0,0.0,0.758246043187,46.0,1419
1423683725419195304,0.119399905427,2.05692,0.0,0.0,0.724272377758,46.0,1419
1423683725535472304,0.117378700041,2.0232,0.0,0.0,0.746512042744,46.0,1418
1423683725655768637,0.115602801164,1.98948,0.0,0.0,0.752942521983,46.0,1418
1423683725775932637,0.113897897777,1.94452,0.0,0.42872,0.719984554304,46.0,1419
1423683725892083971,0.111829725662,1.9108,0.0,0.42872,0.7426957499,46.0,1420
1423683726012797638,0.110012061272,1.82088,0.0,0.42872,0.576252370625,46.0,1421
1423683726130133970,0.106359448859,1.77592,0.0,0.42872,0.657096244682,46.0,1421
1423683726247062637,0.103598349037,1.7422,0.0,0.0,0.71783459189,46.0,1421
1423683726363506637,0.101507047328,1.69724,0.0,0.0,0.702281688236,46.0,1421
1423683726479619971,0.099244390273,1.66352,0.0,0.0,0.731207533119,46.0,1421
1423683726595895304,0.0973007685583,1.6298,0.0,0.0,0.7403366103,46.0,1420
1423683726710992304,0.0954579037156,1.59608,0.0,0.0,0.742751230741,46.0,1420
1423683726829823304,0.0936417627836,1.56236,0.0,0.0,0.742872039588,46.0,1420
1423683726947270637,0.0918270548305,1.52864,0.0,0.0,0.742200656669,46.0,1420
1423683727063041971,0.0900050457912,1.49492,0.0,0.39144,0.741249945976,42.0,1420
1423683727178879304,0.0881726564461,1.4612,0.0,0.39144,0.740196011212,42.0,1421
1423683727294150637,0.0863287493017,1.42748,0.0,0.39144,0.73909961616,42.0,1422
1423683727411978304,0.0844728568521,1.39376,0.0,0.39144,0.737981798736,42.0,1422
1423683727528591637,0.0826047435617,1.36004,0.0,0.39144,0.736849837332,42.0,1423
1423683727646775304,0.0807242541521,1.33756,0.0,0.0,0.772404821744,42.0,1423
1423683727765366304,0.0792358653395,1.32632,0.0,0.0,0.821672092402,42.0,1423
1423683727882206971,0.078290734203,1.32632,0.0,0.0,0.876281899946,42.0,1422
1423683727998341637,0.077947732383,1.30384,0.0,0.0,0.822315724491,42.0,1422
1423683728119900637,0.0770097688973,1.28136,0.0,0.0,0.802480011909,42.0,1422
1423683728236624637,0.0758531674468,1.24764,0.0,0.0,0.757905339759,42.0,1422
1423683728353003971,0.0742051914706,1.2364,0.0,0.0,0.815266978388,42.0,1422
1423683728472578304,0.0731897229525,1.21392,0.0,0.0,0.799002562091,42.0,1422
1423683728589779971,0.0719949945341,1.21392,0.0,0.0,0.86732746882,42.0,1421
1423683728707838304,0.071553619163,1.20268,0.0,0.35416,0.85523026815,38.0,1422
1423683728826241304,0.0709788958421,1.16896,0.0,0.35416,0.775913236531,38.0,1423
1423683728946451637,0.0695297287927,1.14648,0.0,0.35416,0.783466220364,38.0,1423
1423683729063122304,0.0681639143426,1.124,0.0,0.35416,0.785922427047,38.0,1424
1423683729178975971,0.0668252555419,1.10152,0.0,0.0,0.786490974434,38.0,1424
1423683729294806304,0.065492939302,1.09028,0.0,0.0,0.824129773576,38.0,1424
1423683729412002304,0.0645756672986,1.09028,0.0,0.0,0.876003614484,38.0,1424
1423683729528343304,0.0642303587986,1.09028,0.0,0.0,0.895535630457,38.0,1424
1423683729651844304,0.064100411256,1.09028,0.0,0.0,0.90288654832,38.0,1423
1423683729768437971,0.0640515152904,1.10152,0.0,0.0,0.9435273155,38.0,1423
1423683729886869971,0.0644506892501,1.124,0.0,0.0,0.996612310565,38.0,1423
1423683730016968971,0.0654351067307,1.13524,0.0,0.0,0.978508387881,38.0,1423
1423683730133884304,0.0662198726163,1.13524,0.0,0.0,0.933918145898,38.0,1423
1423683730252059304,0.0665129845182,1.13524,0.0,0.0,0.917266503219,38.0,1423
1423683730368268637,0.0666224946669,1.13524,0.0,0.31688,0.911045655439,34.0,1423
1423683730484163971,0.0666634134706,1.14648,0.0,0.31688,0.94641175783,34.0,1424
1423683730601519304,0.0670942436767,1.14648,0.0,0.31688,0.92191004606,34.0,1425
1423683730717378971,0.0672549169431,1.14648,0.0,0.31688,0.912773286583,34.0,1425
1423683730833602971,0.0673148479012,1.13524,0.0,0.0,0.871720873992,34.0,1425
1423683730952041304,0.0669221699058,1.124,0.0,0.0,0.85635116497,34.0,1425
1423683731075298971,0.0663600616192,1.124,0.0,0.0,0.88824194951,34.0,1425
1423683731192094304,0.0661495825838,1.124,0.0,0.0,0.900184818564,34.0,1425
1423683731311428304,0.0660707861681,1.14648,0.0,0.0,0.98012062064,34.0,1425
1423683731430507971,0.0668732917553,1.15772,0.0,0.0,0.972151037624,34.0,1425
1423683731548842971,0.0675878876162,1.15772,0.0,0.0,0.931465546465,34.0,1424
1423683731665315971,0.0678538835255,1.15772,0.0,0.0,0.916323486876,34.0,1424
1423683731784449971,0.0679529224407,1.16896,0.0,0.0,0.94828546408,34.0,1424
1423683731901367971,0.0684043388204,1.16896,0.0,0.33552,0.922560148675,36.0,1424
1423683732017847638,0.0685721068029,1.16896,0.0,0.33552,0.913000346544,36.0,1425
1423683732136564971,0.0686344680085,1.15772,0.0,0.33552,0.871895547305,36.0,1426
1423683732252675638,0.0682436425606,1.13524,0.0,0.33552,0.818980425214,36.0,1426
1423683732369574304,0.0672694460022,1.124,0.0,0.33552,0.836651637084,36.0,1427
1423683732486440638,0.0664901298154,1.0678,0.0,0.0,0.692348572626,36.0,1427
1423683732602496971,0.0641199058141,1.03408,0.0,0.0,0.712434261881,36.0,1427
1423683732718046971,0.0619712593969,1.05656,0.0,0.0,0.90930920132,36.0,1427
1423683732834543971,0.0619932917261,1.07904,0.0,0.0,0.984106448576,36.0,1426
1423683732956382638,0.0628399675577,1.11276,0.0,0.0,1.05012431376,36.0,1426
1423683733074163971,0.0644144478619,1.14648,0.0,0.0,1.07436816049,36.0,1426
1423683733189206304,0.066256130866,1.25888,0.0,0.0,1.34676958328,36.0,1426
1423683733307653971,0.0711009557892,1.30384,0.0,0.0,1.21749327407,36.0,1426
1423683733423611638,0.0745202317093,1.33756,0.0,0.0,1.13144244805,36.0,1426
1423683733540110971,0.0769906015791,1.36004,0.0,0.33552,1.06231666888,36.0,1426
1423683733656866638,0.0786987178493,1.38252,0.0,0.33552,1.03691400343,36.0,1427
1423683733777034971,0.0801266731216,1.38252,0.0,0.33552,0.953919996965,36.0,1427
1423683733896630638,0.0806395345404,1.38252,0.0,0.33552,0.924121231225,36.0,1428
1423683734012516971,0.0808238340622,1.38252,0.0,0.0,0.913414069723,36.0,1428
1423683734129306304,0.0808900761661,1.38252,0.0,0.0,0.909565786959,36.0,1428
1423683734248527971,0.0809138870125,1.37128,0.0,0.0,0.871497307991,36.0,1428
1423683734364708304,0.0805179889933,1.36004,0.0,0.0,0.857756637619,36.0,1427
1423683734481127304,0.0799706211581,1.33756,0.0,0.0,0.815980963511,36.0,1427
1423683734601073638,0.078962704118,1.30384,0.0,0.0,0.763807945444,36.0,1427
1423683734719374971,0.0773796320395,1.2926,0.0,0.0,0.818137472678,36.0,1427
1423683734836126638,0.0763956346044,1.27012,0.0,0.0,0.80081088319,36.0,1427
1423683734956647304,0.0752206650095,1.27012,0.0,0.0,0.868350463906,36.0,1427
1423683735075901638,0.0747903891068,1.2926,0.0,0.35416,0.967324357852,38.0,1427
1423683735192126971,0.0754513309589,1.30384,0.0,0.35416,0.966301051739,38.0,1428
1423683735308385304,0.0761009540825,1.30384,0.0,0.35416,0.928821564135,38.0,1428
1423683735425423304,0.0763373272452,1.31508,0.0,0.35416,0.952194213788,38.0,1429
1423683735543964971,0.0768313723165,1.33756,0.0,0.35416,0.997609649535,38.0,1430
1423683735661402638,0.077826098184,1.33756,0.0,0.0,0.940037733914,38.0,1429
1423683735777463971,0.0781860345421,1.3488,0.0,0.0,0.956087800472,38.0,1429
1423683735894413971,0.0787229039684,1.3488,0.0,0.0,0.924988603554,38.0,1429
1423683736010979971,0.0789168728262,1.33756,0.0,0.0,0.876927785999,38.0,1429
1423683736127076638,0.0785809571565,1.31508,0.0,0.0,0.822661220096,38.0,1429
1423683736244492638,0.0776467676048,1.30384,0.0,0.0,0.839668416305,38.0,1428
1423683736363555304,0.076900135435,1.2926,0.0,0.0,0.845755747853,38.0,1428
1423683736486168638,0.076220657981,1.28136,0.0,0.0,0.847883578357,38.0,1428
1423683736611505971,0.0755646777437,1.28136,0.0,0.3728,0.885635873506,40.0,1429
1423683736725211638,0.0753249555415,1.28136,0.0,0.3728,0.899434099676,40.0,1430
1423683736843988971,0.0752373730278,1.28136,0.0,0.3728,0.904475546658,40.0,1430
1423683736960577971,0.0752053776716,1.28136,0.0,0.3728,0.906317306833,40.0,1431
1423683737076972638,0.0751936896225,1.28136,0.0,0.0,0.906990114909,40.0,1431
1423683737194402971,0.075189419977,1.28136,0.0,0.0,0.907235892395,40.0,1431
1423683737310108304,0.075187860282,1.28136,0.0,0.0,0.90732567462,40.0,1431
1423683737427920971,0.0751872905288,1.28136,0.0,0.0,0.907358471888,40.0,1431
1423683737544202304,0.0751870823992,1.2926,0.0,0.0,0.944459671715,40.0,1431
1423683737660976971,0.0755959175119,1.30384,0.0,0.0,0.957958571868,40.0,1430
1423683737776529304,0.0761535562016,1.32632,0.0,0.0,0.99982915006,40.0,1430
1423683737893341304,0.0771727898645,1.3488,0.00630614794268,0.0,1.35124973901,40.0,1430
1423683738009814638,0.0820664025675,1.37128,0.078347360705,0.0,4.44971757346,40.0,1430
1423683738127051638,0.121120558293,1.41624,0.341500435184,0.0,4.44968050313,40.0,1430
1423683738245950304,0.160172126576,1.4612,0.594097044912,0.0,4.44964419779,40.0,1429
1423683738364844304,0.19922110759,1.5174,0.810772698873,0.31688,4.4496086573,34.0,1430
1423683738484433304,0.238267501507,1.5736,0.887115654132,0.31688,4.44957388149,34.0,1430
1423683738603161304,0.277311308497,1.69724,0.923756586014,0.31688,4.44953987022,34.0,1430
1423683738720422638,0.316352528734,1.76468,1.06000316505,0.31688,4.44950662334,34.0,1430
1423683738840932638,0.355391162389,1.83212,1.1398975676,0.0,4.4494741407,34.0,1429
1423683738960188639,0.394427209634,1.89956,1.2085681476,0.0,4.44944242214,34.0,1428
1423683739077248306,0.433460670641,1.97824,1.29936432165,0.0,4.44941146751,34.0,1427
1423683739193765306,0.472491545582,2.05692,1.37918800312,0.0,4.44938127666,34.0,1426
1423683739311178640,0.511519834628,2.14684,1.50949227757,0.0,4.44935184944,34.0,1425
1423683739427579972,0.550545537952,2.23676,1.59626847004,0.0,4.4493231857,34.0,1424
1423683739545777306,0.589568655725,2.32668,1.62600920881,0.0,4.44929528529,34.0,1423
1423683739665582639,0.628589188119,2.4166,1.64085225428,0.0,4.44926814805,34.0,1422
1423683739782596973,0.667607135306,2.49528,1.54539960042,0.0,4.44924177383,34.0,1420
1423683739906225973,0.706622497458,2.59644,1.62021845879,0.35416,4.44921616248,38.0,1419
1423683740024358973,0.745635274747,2.67512,1.56215278264,0.35416,4.44919131386,38.0,1418
1423683740142479639,0.784645467344,2.7538,1.4693977876,0.35416,4.4491672278,38.0,1418
1423683740260198306,0.82365307542,2.8662,1.32481398184,0.35416,4.44914390416,38.0,1417
1423683740379192639,0.862658099149,2.89992,1.27802283831,0.0,4.44912134279,38.0,1415
1423683740498186306,0.901660538702,2.94488,1.20353823626,0.0,4.44909954353,38.0,1413
1423683740615234973,0.94066039425,2.9786,1.25635380749,0.0,4.44907850624,38.0,1411
1423683740737551639,0.979657665964,2.98984,1.20791554169,0.0,4.44905823076,38.0,1409
1423683740855155306,1.01865235402,3.00108,1.10545257062,0.0,4.44903871694,38.0,1406
1423683740971705973,1.05764445858,3.01232,1.07019117532,0.48464,4.44901996463,52.0,1405
1423683741089687639,1.09663397983,3.01232,1.05205494973,0.48464,3.58152356883,52.0,1403
1423683741205734973,1.12605693614,3.01232,1.06021367154,0.48464,2.27686107941,52.0,1402
1423683741322693973,1.14109413615,3.01232,1.10042171437,0.48464,3.57709594317,52.0,1400
1423683741438881639,1.1704655492,2.98984,1.00352335391,0.0,-3.46755821711,52.0,1398
1423683741559143639,1.12216758793,2.9786,0.973665920819,0.0,-2.31232004727,52.0,1396
1423683741678086639,1.08660913293,2.95612,0.896177515204,0.80152,-4.51954483637,86.0,1395
1423683741797715639,1.02671811154,2.93364,0.827633697969,0.80152,-4.83621415422,86.0,1395
1423683741914787639,0.963339438866,2.87744,0.743495799241,0.80152,-5.89696885256,86.0,1394
1423683742033045306,0.888269730791,2.85496,0.594813261922,0.80152,-6.22808086751,86.0,1394
1423683742157363973,0.809554004308,2.82124,0.493703845897,1.04384,-6.22803556314,112.0,1394
1423683742277095306,0.730843468668,2.77628,0.311173439315,1.04384,-6.22798716398,112.0,1395
1423683742395050973,0.65213812353,2.74256,0.152481329109,1.04384,-6.22793567065,112.0,1396
1423683742514055639,0.573437968556,2.72008,0.165853645812,1.04384,-6.22788108375,112.0,1397
1423683742632418973,0.494743003404,2.6976,0.225601866078,1.19296,-6.2278234039,128.0,1398
1423683742750245639,0.416053227735,2.68636,0.2992723332,1.19296,1.5258617124,128.0,1400
1423683742867073973,0.422852801567,2.67512,0.327389213957,1.19296,2.71225841573,128.0,1402
1423683742983454306,0.442732076208,2.65264,0.260880579369,1.19296,-2.48104550195,128.0,1404
1423683743104455639,0.405353734771,2.6414,0.261267115076,1.2116,-0.163576680679,130.0,1406
1423683743222875640,0.393527766606,2.6414,0.354829318373,1.2116,4.4494431444,130.0,1408
1423683743341395973,0.432561287203,2.63016,0.359686694774,1.2116,3.84264512103,130.0,1410
1423683743458834639,0.464902580727,2.63016,0.432468829398,1.2116,4.44938708716,130.0,1411
1423683743575540973,0.503931372562,2.63016,0.507973688437,1.17432,4.44935751148,126.0,1413
1423683743693507306,0.54295757864,2.6414,0.579215265255,1.17432,4.4493286993,126.0,1415
1423683743814616973,0.581981199135,2.65264,0.70294769711,1.17432,4.44930065047,126.0,1416
1423683743932560306,0.621002234217,2.66388,0.804861932274,1.17432,4.44927336485,126.0,1417
1423683744049396306,0.660020684058,2.68636,0.892520749569,0.0,4.44924684228,126.0,1417
1423683744166378973,0.699036548831,2.6976,0.943632358606,1.08112,4.44922108262,116.0,1418
1423683744284646306,0.738049828707,2.6976,0.862756713473,1.08112,4.4491960857,116.0,1419
1423683744401413306,0.777060523859,2.70884,0.823723818338,1.08112,4.44917185138,116.0,1420
1423683744518500306,0.816068634456,2.73132,0.941238050611,1.08112,4.44914837951,116.0,1421
1423683744636773306,0.855074160673,2.74256,1.02145369982,0.0,4.44912566994,116.0,1419
1423683744755487639,0.894077102679,2.7538,1.04775424894,0.95064,4.44910372251,102.0,1419
1423683744874511973,0.933077460648,2.76504,1.06150657578,0.95064,4.44908253707,102.0,1419
1423683744994969973,0.97207523475,2.78752,1.15397843865,0.95064,4.44906211347,102.0,1419
1423683745120368306,1.01107042516,2.79876,1.16976852844,0.95064,4.44904245157,102.0,1419
1423683745238161639,1.05006303204,2.83248,1.1768941676,0.0,4.4490235512,102.0,1417
1423683745357519639,1.08905305558,2.84372,1.2704535672,0.89472,4.44900541223,96.0,1416
1423683745479601639,1.12804049593,2.8662,1.31379572592,0.89472,4.44898803449,96.0,1416
1423683745597013306,1.16702535328,2.87744,1.37901528045,0.89472,4.44897141783,96.0,1415
1423683745715600639,1.20600762779,2.91116,1.46611287045,0.89472,4.44895556211,96.0,1414
1423683745838119973,1.24498731963,2.93364,1.57336023824,0.0,4.44894046718,96.0,1412
1423683745963585640,1.28396442898,2.94488,1.54038316896,0.0,4.44892613288,96.0,1409
1423683746082152973,1.32293895601,2.96736,1.5351570792,0.78288,4.44891255906,84.0,1408
1423683746203714973,1.3619109009,2.98984,1.5708020678,0.78288,4.44889974557,84.0,1406
1423683746321858640,1.4008802638,3.00108,1.5398921945,0.78288,4.44888769226,84.0,1405
1423683746441080640,1.4398470449,3.01232,1.51275469076,0.78288,4.44887639898,84.0,1404
1423683746557838973,1.47881124436,3.02356,1.52788022758,0.0,4.44886586557,84.0,1400
1423683746675222640,1.51777286236,3.04604,1.58483985193,0.80152,4.4488560919,86.0,1398
1423683746792191306,1.55673189906,3.04604,1.6395057982,0.80152,4.44884707779,86.0,1396
1423683746909518306,1.59568835465,3.05728,1.64487864938,0.80152,4.44883882312,86.0,1395
1423683747027500639,1.63464222929,3.05728,1.68504329836,0.80152,4.44883132772,86.0,1393
1423683747146992639,1.67359352315,3.05728,1.68141208297,0.0,3.4745177921,86.0,1390
1423683747264132640,1.70180048379,3.05728,1.68798757055,1.00656,2.3151963847,108.0,1389
1423683747380262973,1.71722408321,3.04604,1.65348324205,1.00656,-0.283526014061,108.0,1387
1423683747495750973,1.70399571993,3.0348,1.59514855018,1.00656,-2.49762145512,108.0,1385
1423683747616306640,1.6663577616,3.02356,1.54989048516,1.00656,-2.7496823747,108.0,1384
1423683747734486306,1.62594324676,3.01232,1.51154299576,1.23024,-2.50827622357,132.0,1383
1423683747851857306,1.5881928307,2.9786,1.33037115737,1.23024,-6.22834745727,132.0,1382
1423683747977349973,1.50943094846,2.96736,1.29266238796,1.23024,-6.22832968906,132.0,1382
1423683748095125640,1.43067426009,2.94488,1.23420733894,1.43528,-6.09855747002,154.0,1382
1423683748214486640,1.35335327776,2.91116,1.08282555009,1.43528,-6.22828531556,154.0,1382
1423683748334715973,1.27460688177,2.84372,0.994658595958,1.43528,-6.22825830477,154.0,1382
1423683748454054306,1.19586567863,2.79876,0.772130574866,1.56576,-6.22822819556,168.0,1383
1423683748574970306,1.11712966801,2.74256,0.531685447522,1.56576,-6.22819498855,168.0,1384
1423683748696658640,1.03839884956,2.6976,0.349291825602,1.56576,-6.22815868437,168.0,1385
1423683748815787306,0.959673222945,2.66388,0.349723544724,1.6776,-6.22811928361,180.0,1387
1423683748942231306,0.88095278782,2.61892,0.399575530735,1.6776,-6.22807678689,180.0,1389
1423683749061644640,0.802237543846,2.59644,0.472431308293,1.6776,-6.22803119483,180.0,1391
1423683749180852973,0.723527490684,2.56272,0.481776479654,1.65896,-6.22798250804,178.0,1393
1423683749296962973,0.644822627993,2.55148,0.543846000313,1.65896,1.02650140037,178.0,1395
1423683749414047306,0.646103444971,2.529,0.496358490683,1.60304,-1.76686606185,172.0,1398
1423683749535721640,0.616587167379,2.50652,0.424452008442,1.60304,-4.07874642474,172.0,1400
1423683749655164306,0.561584014673,2.4728,0.294309232689,1.60304,-6.22787259342,172.0,1403
1423683749775635640,0.482889831221,2.43908,0.181079889321,1.52848,-6.22781444774,164.0,1405
1423683749895136306,0.404200837201,2.37164,0.109499560558,1.52848,-6.22775320982,164.0,1408
1423683750022526640,0.325517032273,2.34916,0.0,1.52848,-6.22768888026,164.0,1411
1423683750145765973,0.246838416095,2.31544,0.0,1.52848,-6.22762145967,164.0,1414
1423683750266594973,0.168164988329,2.29296,0.0,0.0,-1.61743737109,164.0,1415
1423683750386199640,0.140323554044,2.27048,0.0,0.91336,0.0564410500841,98.0,1416
1423683750502244973,0.130938296115,2.248,0.0,0.91336,0.578191102849,98.0,1418
1423683750623373973,0.127305891089,2.23676,0.0,0.91336,0.772301414317,98.0,1420
1423683750743377973,0.125813767847,2.22552,0.0,0.91336,0.832211180796,98.0,1421
1423683750861552306,0.124982237024,2.21428,0.0,1.19296,0.850659413543,128.0,1424
1423683750977517640,0.124354145597,2.20304,0.0,1.19296,0.856299403687,128.0,1426
1423683751095393640,0.123788270488,2.1918,0.0,1.19296,0.857976788929,128.0,1429
1423683751216000640,0.123240920242,2.18056,0.0,1.19296,0.858425706981,128.0,1431
1423683751331521973,0.122698549893,2.16932,0.0,0.0,0.858492844039,128.0,1432
1423683751449226306,0.122156949999,2.15808,0.0,0.98792,0.858440935174,106.0,1433
1423683751565952640,0.121614808027,2.15808,0.0,0.98792,0.892165233695,106.0,1435
1423683751681441306,0.121444508926,2.15808,0.00570173674675,0.98792,1.23348997132,106.0,1438
1423683751797131640,0.125037347116,2.15808,0.046507768605,0.0,3.37624485794,106.0,1440
1423683751915173973,0.152253998241,2.15808,0.102355524117,0.0,4.44965149746,106.0,1439
1423683752032481640,0.191303503852,2.16932,0.217901712131,0.0,4.4496158019,106.0,1439
1423683752151002640,0.23035042233,2.1918,0.413248643237,0.0,4.44958087105,106.0,1438
1423683752271629306,0.269394753848,2.21428,0.584907213889,0.0,4.44954670477,106.0,1438
1423683752392657640,0.308436498577,2.22552,0.59381779538,0.0,4.44951330291,106.0,1437
1423683752512500640,0.34747565669,2.248,0.601180438757,0.0,4.44948066532,106.0,1436
1423683752635618640,0.386512228357,2.25924,0.539405832278,0.0,4.44944879184,106.0,1435
1423683752753595973,0.425546213752,2.25924,0.419041117682,0.0,4.44941768232,106.0,1435
1423683752871346640,0.464577613045,2.25924,0.371791379584,0.0,1.35664023631,106.0,1434
1423683752988400973,0.469508717044,2.25924,0.401762167913,0.0,2.72720268188,106.0,1433
1423683753111635973,0.489550063948,2.25924,0.456646750619,0.0,4.44936832089,106.0,1431
1423683753231018306,0.528577222825,2.25924,0.51042573156,0.0,4.44933922739,106.0,1430
1423683753356628306,0.567601796054,2.25924,0.56095534384,0.0,4.4493108973,106.0,1429
1423683753473821306,0.606623783807,2.25924,0.607388781256,0.0,4.44928333046,106.0,1428
1423683753591984640,0.645643186257,2.25924,0.649652207813,0.0,4.44925652674,106.0,1426
1423683753709871973,0.684660003574,2.25924,0.688983471728,0.0,4.44923048597,106.0,1425
1423683753836033306,0.723674235932,2.25924,0.727023979642,0.0,4.44920520801,106.0,1423
1423683753955388640,0.762685883501,2.25924,0.764999411192,0.0,4.4491806927,106.0,1422
1423683754074994306,0.801694946454,2.25924,0.803448821992,0.0,4.44915693989,106.0,1420
1423683754196884640,0.840701424962,2.25924,0.842379689035,0.0,4.44913394944,106.0,1418
1423683754316913306,0.879705319196,2.25924,0.881566356656,0.0,4.40563162105,106.0,1416
1423683754432921973,0.918227259334,2.25924,0.920699048405,0.0,4.22709392732,106.0,1414
1423683754550258306,0.954778495512,2.25924,0.95909295044,0.0,4.10839930407,106.0,1412
1423683754666700640,0.990018911468,2.25924,0.995689530689,0.0,3.97819933676,106.0,1410
1423683754783338306,1.02382173274,2.25924,1.0301165211,0.0,3.82672995513,106.0,1408
1423683754900104640,1.05595254409,2.25924,1.0624746941,0.0,3.66819285015,106.0,1405
1423683755021547640,1.08633351964,2.248,1.03286448581,0.0,0.517120915417,106.0,1403
