%time,field.v,field.h,field.vl,field.actual_v,field.u,field.rpm,field.pwm
1423689510884217327,0.0,0.0,0.00245585517984,0.0,0.907,0.0,1420
1423689511020883661,0.0,0.0,0.00166399043885,0.0,0.907,0.0,1420
1423689511154148327,0.0,0.0,0.001260323973,0.0,0.907,0.0,1420
1423689511284718994,0.0,0.0,0.0010191407655,0.0,0.907,0.0,1420
1423689511412569661,0.0,0.0,0.00086003295128,0.0,0.907,0.0,1420
1423689511545453327,0.0,0.0,0.000747901136738,0.0,0.907,0.0,1420
1423689511674133661,0.0,0.0,0.000665159070574,0.0,0.907,0.0,1420
1423689511804323661,0.0,0.0,0.000602008159405,0.0,0.907,0.0,1420
1423689511938911994,0.0,0.01124,0.0666361764104,0.0,0.907,0.0,1420
1423689512066922327,0.0,0.03372,0.219216194373,0.0,0.907,0.0,1420
1423689512204128661,0.0,0.06744,0.389678202872,0.0,0.907,0.0,1420
1423689512335728994,0.0,0.14612,0.553055540628,0.0,0.907,0.0,1420
1423689512465316327,0.0,0.20232,0.752170197833,0.0,0.907,0.0,1420
1423689512594988994,0.0,0.26976,0.909791347242,0.0,4.44979795614,0.0,1420
1423689512712302994,0.039059592844,0.32596,0.868199768617,0.0,4.44975927796,0.0,1419
1423689512829479994,0.0781165978851,0.3934,0.781605703058,0.0,4.44972136509,0.0,1419
1423689512946170661,0.117171015295,0.4496,0.660353373679,0.0,4.44968421739,0.0,1419
1423689513067716327,0.156222845247,0.51704,0.661196454889,0.0,4.44964783469,0.0,1419
1423689513185225327,0.195272087911,0.65192,0.705183482589,0.0,4.44961221685,0.0,1418
1423689513302195994,0.23431874346,0.7306,0.938722610712,0.0,4.44957736372,0.0,1418
1423689513418726327,0.273362812066,0.82052,1.16473485764,0.0,4.44954327514,0.0,1417
1423689513537167327,0.312404293901,0.8992,1.37144136322,0.0,4.44950995096,0.0,1417
1423689513665700994,0.351443189137,1.00036,1.49694932331,0.0,4.44947739103,0.0,1416
1423689513784422994,0.390479497945,1.10152,1.66834059319,0.0,4.4494455952,0.0,1415
1423689513901437994,0.429513220498,1.20268,1.71195616583,0.0,4.44941456332,0.0,1414
1423689514023878661,0.468544356968,1.30384,1.65097592951,0.0,4.44938429524,0.0,1413
1423689514140646994,0.507572907525,1.41624,1.69608462655,0.0,4.4493547908,0.0,1412
1423689514265280994,0.546598872343,1.5174,1.62949553734,0.0,4.44932604985,0.0,1411
1423689514384212327,0.585622251592,1.6298,1.64998509059,0.0,4.44929807225,0.0,1410
1423689514508714660,0.624643045446,1.73096,1.55682894358,0.0,4.44927085783,0.0,1408
1423689514624901327,0.663661254074,1.9108,1.54145885228,0.0,4.44924440645,0.0,1407
1423689514742592994,0.702676877651,1.97824,1.51666645383,0.0,4.44921871796,0.0,1405
1423689514859461327,0.741689916346,2.04568,1.41331323924,0.0,4.44919379221,0.0,1404
1423689514976184327,0.780700370333,2.09064,1.34064856263,0.0,4.44916962904,0.0,1402
1423689515097058994,0.819708239782,2.14684,1.2724272361,0.0,4.4491462283,0.0,1400
1423689515216517994,0.858713524866,2.1918,1.30460677213,0.0,4.44912358985,0.0,1398
1423689515335528661,0.897716225755,2.248,1.40733544981,0.0,4.44910171352,0.0,1396
1423689515452089328,0.936716342623,2.29296,1.46238273029,0.7456,4.44908059918,80.0,1396
1423689515569227327,0.975713875641,2.34916,1.53618012134,0.7456,4.44906024666,80.0,1395
1423689515686668661,1.01470882498,2.4166,1.69868768402,0.7456,4.44904065582,80.0,1395
1423689515808598327,1.05370119081,2.4728,1.73884000794,0.7456,4.4490218265,80.0,1394
1423689515925949661,1.09269097331,2.54024,1.79201277024,0.0,4.44900375856,0.0,1393
1423689516043662661,1.13167817264,2.59644,1.74185685654,1.0252,4.44898645184,110.0,1392
1423689516160952661,1.17066278898,2.66388,1.74652909561,1.0252,4.44896990619,110.0,1392
1423689516277595661,1.20964482251,2.73132,1.78455596767,1.0252,4.44895412147,110.0,1392
1423689516398367327,1.24862427338,2.84372,1.83185760001,1.0252,4.44893909751,110.0,1391
1423689516518953994,1.28760114177,2.91116,1.92089903193,1.17432,4.44892483418,126.0,1391
1423689516637648994,1.32657542787,2.96736,2.00937004619,1.17432,4.44891133131,126.0,1391
1423689516754290661,1.36554713182,3.0348,2.08769439216,1.17432,4.44889858875,126.0,1390
1423689516873897661,1.40451625382,3.10224,2.16600202746,1.3048,4.44888660636,140.0,1390
1423689516990379661,1.44348279402,3.15844,2.18619406697,1.3048,4.44887538399,140.0,1390
1423689517110954994,1.48244675261,3.22588,2.19199104241,1.3048,4.44886492148,140.0,1389
1423689517227819327,1.52140812975,3.29332,2.25270690812,1.398,4.44885521869,150.0,1389
1423689517344567661,1.56036692561,3.36076,2.29080046113,1.398,4.44884627545,150.0,1389
1423689517461378994,1.59932314037,3.4282,2.31384044011,1.398,4.44883809163,150.0,1388
1423689517578577661,1.63827677419,3.49564,2.34060477276,1.398,4.44883066706,150.0,1388
1423689517698979994,1.67722782726,3.55184,2.27007645983,1.43528,4.44882400161,154.0,1387
1423689517816026661,1.71617629973,3.63052,2.3706790145,1.43528,4.44881809512,154.0,1387
1423689517934269661,1.75512219179,3.68672,2.31247242223,1.43528,4.44881294743,154.0,1386
1423689518056197327,1.7940655036,3.7654,2.41316128888,1.4912,4.4488085584,160.0,1385
1423689518175211327,1.83300623533,3.90028,2.52831113865,1.4912,4.44880492787,160.0,1385
1423689518293466994,1.87194438716,3.94524,2.6391463699,1.4912,4.4488020557,160.0,1384
1423689518415266994,1.91087995926,4.01268,2.58438633704,1.54712,4.44879994174,166.0,1383
1423689518533039994,1.9498129518,4.06888,2.61251308219,1.54712,2.73490763029,166.0,1382
1423689518648747327,1.96984769525,4.11384,2.54921195999,1.54712,2.01007868896,166.0,1381
1423689518766546327,1.98188986868,4.17004,2.52006968304,1.65896,1.84439409249,178.0,1380
1423689518883295661,1.99210457204,4.215,2.51282409967,1.65896,1.55502127258,178.0,1380
1423689518999968994,1.99912826136,4.24872,2.41103697345,1.73352,2.26430872504,186.0,1379
1423689519115679328,2.01397138857,4.28244,2.31798320169,1.73352,2.60777272531,186.0,1378
1423689519236161994,2.03260022723,4.31616,2.2929727481,1.73352,2.18071368391,186.0,1378
1423689519352673328,2.04651949982,4.3274,2.17900517184,1.80808,2.69171249379,194.0,1377
1423689519468951661,2.06607161521,4.3274,2.01410680752,1.80808,2.39533526592,194.0,1377
1423689519584631661,2.08235486837,4.33864,2.02004363784,1.80808,1.52277682672,194.0,1376
1423689519700904661,2.08901707212,4.33864,2.02776742541,1.90128,1.19944328488,204.0,1376
1423689519819496994,2.09211407663,4.3274,1.97447820295,1.90128,-0.659785836703,204.0,1375
1423689519937078327,2.07471285622,4.29368,1.78560095482,1.99448,-6.22838845806,214.0,1375
1423689520053723328,1.99591889099,4.20376,1.51050361658,1.99448,-6.2283898494,214.0,1375
1423689520170258327,1.91713012173,4.17004,1.36172903451,2.06904,-6.22838813671,222.0,1375
1423689520287168994,1.8383465481,4.11384,1.31159807642,2.06904,-6.2283833206,222.0,1376
1423689520404422328,1.75956816976,4.0464,1.12822993343,2.06904,-6.22837540169,222.0,1376
1423689520522223994,1.68079498637,3.9902,0.921123136291,2.12496,-6.2283643806,228.0,1377
1423689520643988661,1.60202699758,3.94524,0.909507909952,2.12496,-6.22835025793,228.0,1379
1423689520761721328,1.52326420307,3.86656,0.795016757197,2.18088,-6.2283330343,234.0,1380
1423689520880367661,1.44450660248,3.81036,0.709968886869,2.18088,-6.22831271033,234.0,1382
1423689520996644328,1.36575419548,3.74292,0.62773562351,2.18088,-6.22828928662,234.0,1384
1423689521113459661,1.28700698173,3.69796,0.701188481326,2.18088,-6.2282627638,234.0,1386
1423689521232650328,1.20826496088,3.653,0.757351854294,2.1436,-6.22823314247,230.0,1388
1423689521349283994,1.1295281326,3.61928,0.835452394302,2.1436,-6.22820042324,230.0,1391
1423689521465049661,1.05079649654,3.58556,0.837196697215,2.08768,-4.12953168273,224.0,1393
1423689521583474994,0.995207565465,3.56308,0.840629937103,2.08768,-0.507497419541,224.0,1396
1423689521700180661,0.979555082432,3.5406,0.80426183082,2.08768,-1.73348309469,224.0,1398
1423689521817819328,0.950387003523,3.51812,0.76640400151,1.99448,-2.19900900504,214.0,1401
1423689521935515328,0.916088242361,3.51812,0.883185990597,1.99448,4.44909167232,214.0,1403
1423689522053663328,0.955087142039,3.51812,0.973588637115,1.88264,4.44907091686,202.0,1406
1423689522172780661,0.994083457948,3.52936,1.04546027393,1.88264,4.44905092316,202.0,1408
1423689522291389661,1.03307719026,3.55184,1.19864908654,1.88264,4.44903169107,202.0,1410
1423689522407571328,1.07206833914,3.58556,1.40285279219,1.78944,4.44901322043,192.0,1412
1423689522528500328,1.11105690477,3.61928,1.59053440429,1.78944,4.4489955111,192.0,1413
1423689522644898994,1.15004288732,3.64176,1.61634093108,1.78944,4.44897856292,192.0,1415
1423689522767419328,1.18902628696,3.68672,1.64918259355,1.65896,4.44896237573,178.0,1416
1423689522886236994,1.22800710386,3.74292,1.80890801628,1.65896,4.4489469494,178.0,1417
1423689523003235994,1.26698533819,3.79912,1.94781878241,1.65896,4.44893228377,178.0,1418
1423689523119544994,1.30596099012,3.86656,2.06130468094,1.41664,4.44891837868,152.0,1418
1423689523238587994,1.34493405983,3.934,2.11348488453,1.41664,4.44890523399,152.0,1419
1423689523363431661,1.38390454749,4.00144,2.12348984651,1.41664,4.44889284954,152.0,1419
1423689523480618994,1.42287245326,4.06888,2.07318519737,1.41664,4.44888122519,152.0,1419
1423689523597921994,1.46183777733,4.20376,2.01906849141,1.17432,4.44887036079,126.0,1418
1423689523716411994,1.50080051986,4.2712,2.16830488869,1.17432,4.44886025617,126.0,1417
1423689523832929661,1.53976068102,4.33864,2.30256109764,1.17432,4.4488509112,126.0,1417
1423689523949925661,1.57871826099,4.40608,2.35794372198,1.17432,4.44884232572,126.0,1416
1423689524073329994,1.61767325993,4.47352,2.41058811205,0.0,4.44883449958,0.0,1413
1423689524188677994,1.65662567802,4.54096,2.45041676708,0.91336,4.44882743262,98.0,1411
1423689524306179328,1.69557551543,4.59716,2.39984491139,0.91336,4.44882112471,98.0,1409
1423689524424910661,1.73452277233,4.64212,2.27134238457,0.91336,4.44881557568,98.0,1407
1423689524541704994,1.7734674489,4.6646,2.05956637881,0.91336,4.44881078539,98.0,1405
1423689524658325328,1.81240954529,4.69832,1.97653750128,0.0,4.44880675369,0.0,1403
1423689524775334661,1.8513490617,4.7208,1.97039662063,0.0,4.44880348042,0.0,1398
1423689524892020328,1.89028599828,4.73204,1.94874711279,0.78288,4.44880096543,84.0,1395
1423689525008661994,1.92922035521,4.74328,1.9579601026,0.78288,4.44879920858,84.0,1393
1423689525124750994,1.96815213266,4.74328,1.93175583329,0.78288,4.44879820971,84.0,1390
1423689525240974661,2.0070813308,4.74328,1.93919648242,0.78288,3.8323858168,84.0,1387
1423689525357552661,2.03921199903,4.74328,1.986181797,0.0,4.44879834054,0.0,1384
1423689525474079661,2.07813648932,4.74328,2.04886634204,0.95064,2.90154660563,102.0,1380
1423689525591992661,2.09999992378,4.69832,1.98507587982,0.95064,0.585256951495,102.0,1378
1423689525708713328,2.0963247861,4.6646,1.78255526703,0.95064,-6.22838753394,102.0,1375
1423689525827517328,2.0175293957,4.63088,1.63043370082,0.95064,-6.22838977674,102.0,1373
1423689525950075994,1.93873920136,4.58592,1.4790061264,1.3048,-6.22838891534,140.0,1371
1423689526068842661,1.85995420275,4.52972,1.26386731384,1.3048,-6.22838495035,140.0,1370
1423689526186316661,1.78117439952,4.46228,1.00852328809,1.6776,-6.2283778824,180.0,1370
1423689526304849328,1.70239979133,4.39484,0.837922299254,1.6776,-6.22836771209,180.0,1369
1423689526419959661,1.62363037784,4.3274,0.767680912599,1.6776,-6.22835444004,180.0,1369
1423689526537142661,1.54486615871,4.25996,0.749885448574,1.91992,-6.22833806686,206.0,1370
1423689526657553661,1.46610713361,4.19252,0.722643006323,1.91992,-6.22831859316,206.0,1371
1423689526780113661,1.38735330218,4.12508,0.689433131366,2.06904,-6.22829601957,222.0,1373
1423689526898002328,1.3086046641,4.06888,0.734928649052,2.06904,-6.22827034668,222.0,1375
1423689527014884661,1.22986121901,4.01268,0.747883655041,2.10632,-6.22824157512,226.0,1377
1423689527132015994,1.15112296659,3.95648,0.719249913193,2.10632,-6.22820970551,226.0,1379
1423689527249581996,1.07238990648,3.86656,0.686400348668,2.10632,-6.22817473844,226.0,1381
1423689527368490662,0.993662038354,3.83284,0.643681770741,2.06904,-6.22813667454,222.0,1384
1423689527484432329,0.914939361866,3.79912,0.596235203114,2.06904,-6.22809551441,222.0,1387
1423689527605064663,0.836221876676,3.77664,0.558025285685,2.01312,-6.22805125868,216.0,1389
1423689527720998996,0.757509582445,3.7654,0.57753059824,2.01312,-0.595779055078,216.0,1392
1423689527840534662,0.74089803186,3.75416,0.623307231366,2.01312,3.33867608436,216.0,1395
1423689527957806662,0.767665022203,3.75416,0.693220356784,1.88264,4.44917761852,202.0,1398
1423689528077921329,0.806673755275,3.75416,0.793029538665,1.88264,4.44915396302,202.0,1401
1423689528197346329,0.845679903925,3.7654,0.93351881278,1.71488,4.44913106986,184.0,1403
1423689528316780662,0.884683468324,3.77664,1.05759882706,1.71488,4.44910893888,184.0,1405
1423689528435250663,0.923684448643,3.78788,1.11906591746,1.71488,4.44908756993,184.0,1407
1423689528551727663,0.962682845054,3.81036,1.20899277914,1.50984,4.44906696286,162.0,1409
1423689528668042662,1.00167865773,3.83284,1.26808122209,1.50984,4.44904711752,162.0,1410
1423689528784654663,1.04067188684,3.86656,1.37724196752,1.50984,4.44902803375,162.0,1411
1423689528907659662,1.07966253256,3.91152,1.52055252706,1.50984,4.44900971141,162.0,1412
1423689529025268329,1.11865059506,4.03516,1.65859269704,1.2116,4.44899215034,130.0,1413
1423689529141806663,1.15763607451,4.1026,1.99666523539,1.2116,4.44897535039,130.0,1413
1423689529258643329,1.19661897108,4.18128,2.1482901665,1.2116,4.44895931141,130.0,1413
1423689529378645329,1.23559928494,4.2712,2.25642846806,1.2116,4.44894403326,130.0,1413
1423689529497346662,1.27457701627,4.37236,2.43338346743,0.0,4.44892951577,0.0,1411
1423689529616245663,1.31355216524,4.46228,2.49963120981,0.91336,4.4489157588,98.0,1409
1423689529733668663,1.35252473202,4.5522,2.48257173916,0.91336,4.4489027622,98.0,1408
1423689529851891663,1.39149471678,4.65336,2.47667064521,0.91336,4.44889052581,98.0,1407
1423689529968190996,1.43046211969,4.73204,2.38967149578,0.91336,4.44887904949,98.0,1406
1423689530087579996,1.46942694092,4.81072,2.30161734091,0.0,4.44886833308,0.0,1404
1423689530208018662,1.50838918065,4.90064,2.34085699624,0.0,4.44885837644,0.0,1401
1423689530333773996,1.54734883905,4.97932,2.34458733067,0.0,4.44884917941,0.0,1397
1423689530450601662,1.58630591628,5.058,2.32600672549,0.7456,4.44884074184,80.0,1396
1423689530570910330,1.62526041253,5.12544,2.22204076684,0.7456,4.44883306358,80.0,1394
1423689530689591996,1.66421232795,5.23784,2.17217789994,0.7456,4.44882614448,80.0,1392
1423689530807126329,1.70316166273,5.29404,2.18340168032,0.7456,4.44881998439,80.0,1390
1423689530928042329,1.74210841703,5.32776,2.21638406898,0.0,4.44881458316,0.0,1386
1423689531046637996,1.78105259103,5.36148,2.15430526609,0.91336,4.44880994063,98.0,1384
1423689531163264329,1.8199941849,5.38396,2.06893828301,0.91336,4.44880605667,98.0,1382
1423689531283442663,1.85893319881,5.40644,2.02305876402,0.91336,4.4488029311,98.0,1380
1423689531405393329,1.89786963292,5.41768,1.98753389214,0.91336,4.44880056379,98.0,1378
1423689531522749663,1.93680348742,5.41768,1.91222891266,1.17432,4.44879895459,126.0,1376
1423689531639681662,1.97573476247,5.41768,1.88007179117,1.17432,4.44879810334,126.0,1374
1423689531756225329,2.01466345825,5.40644,1.845713345,1.17432,-0.226097346598,126.0,1373
1423689531873145329,2.00204880117,5.37272,1.69870040583,1.50984,-6.22838985251,162.0,1371
1423689531991156663,1.92325962768,5.32776,1.49024892985,1.50984,-6.22838838129,162.0,1370
1423689532107626996,1.84447564984,5.24908,1.13223346322,1.78944,-6.2283838066,192.0,1370
1423689532231731996,1.76569686733,5.18164,0.97131963954,1.78944,-6.22837612907,192.0,1370
1423689532354789996,1.68692327978,5.0018,0.669301612598,1.78944,-6.2283653493,192.0,1370
1423689532472510330,1.60815488688,4.90064,0.424399532755,1.99448,-6.22835146791,214.0,1371
1423689532593299996,1.52939168827,4.81072,0.3173495134,1.99448,-6.22833448551,214.0,1372
1423689532714022996,1.45063368361,4.7208,0.306755936017,2.10632,-6.22831440272,226.0,1374
1423689532835449663,1.37188087256,4.63088,0.309739143619,2.10632,-6.22829122015,226.0,1375
1423689532953173663,1.29313325479,4.52972,0.227990780518,2.19952,-6.22826493841,236.0,1378
1423689533070715996,1.21439082995,4.4398,0.190016713888,2.19952,-6.22823555812,236.0,1380
1423689533187376329,1.13565359771,4.33864,0.0872901453638,2.16224,-6.22820307988,232.0,1382
1423689533308139996,1.05692155771,4.23748,0.0359416150449,2.16224,-6.22816750432,232.0,1385
1423689533427721663,0.978194709633,4.13632,0.0477350084599,2.10632,-6.22812883205,226.0,1388
1423689533546372663,0.899473053124,4.0464,0.0718902051051,2.10632,-6.22808706367,226.0,1391
1423689533664161663,0.820756587847,3.94524,0.0402169814863,2.10632,-6.2280421998,226.0,1394
1423689533781645330,0.742045313462,3.8778,0.0728728735748,2.0504,-6.22799424106,220.0,1397
1423689533897619663,0.663339229628,3.7092,0.0,2.0504,-6.22794318806,220.0,1400
1423689534015252329,0.584638336005,3.63052,0.0,1.97584,-6.2278890414,212.0,1403
1423689534135835329,0.505942632254,3.55184,0.0,1.97584,-6.22783180171,212.0,1407
1423689534253965329,0.427252118033,3.4844,0.0,1.97584,-6.22777146958,212.0,1410
1423689534373938996,0.348566793003,3.41696,0.0,1.864,-6.22770804565,200.0,1414
1423689534493098663,0.269886656825,3.36076,0.0,1.864,-5.63123409163,200.0,1418
1423689534610827330,0.197787138894,3.30456,0.0,1.73352,-0.892496792244,186.0,1422
1423689534730175996,0.177936560501,3.27084,0.0,1.73352,0.371598476955,186.0,1425
1423689534849248996,0.172023828074,3.23712,0.0,1.73352,0.684169191419,186.0,1429
1423689534966104996,0.169557539562,3.2034,0.0,1.5844,0.760785633004,170.0,1433
1423689535084274996,0.167936090543,3.18092,0.0,1.5844,0.809803573755,170.0,1435
1423689535200056329,0.166855158381,3.16968,0.0,1.5844,0.852459319205,170.0,1435
1423689535323488996,0.166244569159,3.16968,0.0,1.5844,0.89381756327,170.0,1435
1423689535440435663,0.166089991478,3.16968,0.0,1.398,0.904288966324,150.0,1435
1423689535557903996,0.166050870358,3.16968,0.0,1.398,0.906939179448,150.0,1435
1423689535674051663,0.166040970201,3.19216,0.0,1.398,0.968966090051,150.0,1435
1423689535792298996,0.166714921309,3.22588,0.0,1.398,1.01511038427,150.0,1435
1423689535911828996,0.167897578481,3.28208,0.0918376847023,0.0,4.44963710596,0.0,1434
1423689536029765329,0.206946047663,3.36076,0.452236069375,0.0,4.44960171676,0.0,1434
1423689536150815996,0.245991929782,3.45068,1.01601224634,0.0,4.44956709222,0.0,1433
1423689536270431663,0.285035225009,3.5406,1.44729077163,0.0,4.44953323219,0.0,1433
1423689536388519996,0.324075933516,3.60804,1.48127040549,0.0,4.44950013651,0.0,1432
1423689536505768996,0.363114055476,3.68672,1.337367417,0.0,4.44946780504,0.0,1431
1423689536627315996,0.402149591059,3.73168,1.02169805584,0.0,4.44943623762,0.0,1430
1423689536748730329,0.441182540439,3.78788,0.862929210305,0.0,4.44940543411,0.0,1429
1423689536866420996,0.480212903786,3.8216,0.709967427478,0.0,4.44937539435,0.0,1428
1423689536985407663,0.519240681273,3.85532,0.651185527804,0.0,4.44934611818,0.0,1427
1423689537103657996,0.558265873071,3.8778,0.627711315431,0.0,4.44931760547,0.0,1426
1423689537223884996,0.597288479353,3.90028,0.608257302289,0.0,4.44928985604,0.0,1425
1423689537344124663,0.636308500289,3.91152,0.654974789184,0.0,4.44926286977,0.0,1423
1423689537467984663,0.675325936053,3.91152,0.706613404224,0.0,4.44923664649,0.0,1422
1423689537585818330,0.714340786815,3.91152,0.704600007344,0.0,4.44921118605,0.0,1420
1423689537703677996,0.753353052748,3.91152,0.716453071882,0.0,4.44918648829,0.0,1419
1423689537822419330,0.792362734024,3.91152,0.754874144853,0.0,4.44916255308,0.0,1417
1423689537941475996,0.831369830813,3.91152,0.808766747933,0.0,4.44913938026,0.0,1415
1423689538058829330,0.870374343288,3.90028,0.793482406703,0.0,4.44911696967,0.0,1413
1423689538175359996,0.909376271621,3.90028,0.845889590784,0.0,4.44909532117,0.0,1411
1423689538293837996,0.948375615983,3.90028,0.929663270295,0.0,4.4490744346,0.0,1409
1423689538417585663,0.987372376546,3.88904,0.926032726012,0.16776,4.44905430982,18.0,1407
1423689538536112330,1.02636655348,3.88904,0.988658237834,0.16776,4.44903494666,18.0,1405
1423689538654007330,1.06535814696,3.88904,1.06481027955,0.16776,4.44901634499,18.0,1403
1423689538770448663,1.10434715716,3.88904,1.12469218305,0.16776,4.44899850465,18.0,1401
1423689538887966330,1.14333358424,3.88904,1.16547105521,0.0,4.44898142548,0.0,1399
1423689539003501996,1.18231742839,3.88904,1.19591069001,0.0,4.44896510734,0.0,1396
1423689539122675996,1.22129868976,3.88904,1.22523183509,0.0,4.44894955007,0.0,1394
1423689539239485663,1.26027736854,3.88904,1.25832502916,0.72696,4.44893475353,78.0,1393
1423689539357531996,1.29925346489,3.88904,1.29575711601,0.72696,4.44892071757,78.0,1391
1423689539474355996,1.33822697899,3.90028,1.39588804744,0.72696,4.44890744202,78.0,1390
1423689539593087663,1.37719791101,3.90028,1.44977197514,0.72696,4.44889492675,78.0,1389
1423689539709505996,1.41616626111,3.91152,1.51690490065,1.09976,4.4488831716,118.0,1388
1423689539826443996,1.45513202948,3.92276,1.59130297387,1.09976,4.44887217642,118.0,1387
1423689539948233330,1.49409521628,3.92276,1.57254717101,1.09976,4.44886194105,118.0,1386
1423689540066293996,1.53305582168,3.934,1.61002313827,1.09976,4.44885246536,118.0,1385
1423689540184952663,1.57201384586,3.94524,1.66949101829,1.34208,4.44884374918,144.0,1385
1423689540302884996,1.61096928898,3.95648,1.72663495922,1.34208,4.44883579237,144.0,1384
1423689540418864996,1.64992215122,3.96772,1.76665944327,1.34208,4.44882859477,144.0,1384
1423689540540963996,1.68887243276,4.00144,1.81367158954,1.45392,4.44882215623,156.0,1383
1423689540662767330,1.72782013375,4.01268,1.93592584331,1.45392,4.44881647661,156.0,1383
1423689540781147996,1.76676525438,4.03516,1.99710879406,1.45392,4.44881155575,156.0,1382
1423689540897564996,1.80570779481,4.0464,2.02698420381,1.52848,4.44880739351,164.0,1381
1423689541014537996,1.84464775522,4.06888,2.04783135803,1.52848,4.44880398972,164.0,1381
1423689541136325663,1.88358513578,4.09136,2.12367750223,1.52848,4.44880134425,164.0,1380
1423689541254605996,1.92251993665,4.11384,2.19307274441,1.64032,4.44879945693,176.0,1379
1423689541371720663,1.96145215802,4.11384,2.10021507536,1.64032,4.44879832763,176.0,1379
1423689541488807663,2.00038180004,4.13632,2.11925480933,1.73352,4.44879795618,186.0,1378
1423689541604519330,2.03930886291,4.13632,2.07355231362,1.73352,3.25010511766,186.0,1377
1423689541720316663,2.0650177418,4.14756,2.10492174091,1.73352,1.95567401307,186.0,1377
1423689541836613996,2.0764537955,4.14756,2.09492461486,1.84536,1.54150713949,198.0,1376
1423689541952342996,2.08332289417,4.14756,2.07853302868,1.84536,1.29277483912,198.0,1376
1423689542069680996,2.08744925936,4.14756,2.07401089792,1.9572,1.01465968948,210.0,1375
1423689542186893996,2.08850912749,4.14756,2.07943538598,1.9572,0.99637884615,210.0,1375
1423689542303021330,2.08936737853,4.13632,2.00980140334,1.9572,0.351819676654,210.0,1375
1423689542419247330,2.08311930149,4.12508,1.95584903489,2.0504,-1.74698703752,220.0,1375
1423689542539973996,2.05373227598,4.11384,1.99558191464,2.0504,2.02751030231,220.0,1375
1423689542657318663,2.06596107606,4.09136,1.92874509533,2.06904,-2.3033861129,222.0,1375
1423689542773950996,2.0304408856,4.09136,1.87340486893,2.06904,-3.21593570804,222.0,1375
1423689542891213330,1.98486218092,4.06888,1.85874093635,2.12496,-1.44380876839,228.0,1375
1423689543009322330,1.95882421029,4.0464,1.74599573741,2.12496,-6.05546893672,228.0,1375
1423689543126170330,1.88194433815,4.03516,1.69255363411,2.12496,-4.54959039644,228.0,1376
1423689543244579663,1.82167183827,4.02392,1.68633477503,2.1436,-1.40213586947,230.0,1377
1423689543363815996,1.796104009,4.02392,1.73020175508,2.1436,2.52239787513,230.0,1377
1423689543478739996,1.81380589698,4.02392,1.79112369508,2.1436,4.4488066232,230.0,1378
1423689543596013663,1.85274532087,4.03516,1.90932488578,2.1436,4.44880337713,230.0,1379
1423689543715470330,1.89168216495,4.05764,2.09917962149,2.18088,4.44880088933,234.0,1380
1423689543842731663,1.93061642938,4.08012,2.23723020072,2.18088,4.44879915966,234.0,1380
1423689543966664663,1.96954811434,4.08012,2.13124158219,2.18088,4.44879818797,234.0,1381
1423689544084584331,2.00847721999,4.12508,2.17447599249,2.18088,3.70573837998,234.0,1381
1423689544200223998,2.03921150632,4.14756,2.27328089563,2.1436,1.71331712616,230.0,1381
1423689544315775331,2.04797728804,4.17004,2.33930737258,2.1436,0.873159027387,230.0,1382
1423689544431319331,2.04747973581,4.19252,2.35721357599,2.0504,0.787134857542,220.0,1382
1423689544547414664,2.04603379923,4.22624,2.36321611397,2.0504,0.853972473376,220.0,1382
1423689544668175998,2.04532484409,4.25996,2.42099470922,2.0504,0.430371739128,220.0,1382
1423689544786028331,2.03994573343,4.29368,2.47068573416,1.99448,0.226727993226,214.0,1382
1423689544906309998,2.03232180527,4.31616,2.42107829255,1.99448,1.00212916009,214.0,1382
1423689545021940331,2.03324718921,4.34988,2.37686273994,1.91992,1.43413271812,206.0,1381
1423689545137725664,2.0389353557,4.37236,2.30154795646,1.91992,1.97362395762,206.0,1381
1423689545256969998,2.05057104132,4.40608,2.31216351664,1.91992,1.49338280671,206.0,1381
1423689545373200665,2.05691129041,4.4398,2.38349439101,1.88264,0.621589875086,202.0,1381
1423689545489666998,2.05363959212,4.47352,2.42780388422,1.88264,0.353994616144,202.0,1380
1423689545608089331,2.04741787071,4.496,2.35620425543,1.84536,1.35413590832,198.0,1380
1423689545726012665,2.05222313077,4.52972,2.34494790535,1.84536,1.35333103713,198.0,1379
1423689545845279998,2.05701919787,4.5522,2.27657928035,1.84536,1.93216308825,198.0,1379
1423689545962754665,2.06819657542,4.59716,2.38095720839,1.82672,0.502256850597,196.0,1378
1423689546079790331,2.06360847903,4.6646,2.36530134412,1.82672,0.967378722102,196.0,1378
1423689546196826998,2.06414866108,4.69832,2.46578560908,1.82672,-0.139437244004,196.0,1377
1423689546314583665,2.05248614996,4.73204,2.4943459754,1.78944,-0.0252941471487,192.0,1377
1423689546431001998,2.04208284255,4.76576,2.45993727151,1.78944,0.786400238394,192.0,1376
1423689546547019998,2.04062916511,4.78824,2.37633456274,1.80808,1.88680780965,194.0,1376
1423689546664185998,2.05130758932,4.8332,2.35852990097,1.80808,1.80517101025,194.0,1375
1423689546785800331,2.06108525761,4.86692,2.43047749531,1.80808,0.62092442473,194.0,1375
1423689546904198331,2.05780594529,4.90064,2.48031819826,1.84536,0.143309643313,198.0,1374
1423689547023080331,2.04926114305,4.93436,2.46695669357,1.84536,0.644964265886,198.0,1374
1423689547137564665,2.0462476559,4.96808,2.42942897251,1.88264,1.28637542244,202.0,1373
1423689547255749665,2.05030593363,4.99056,2.32903331117,1.88264,2.52277970446,202.0,1373
1423689547371531998,2.06799531164,5.03552,2.395625229,1.88264,1.10358713957,202.0,1372
1423689547487292665,2.07003690105,5.058,2.35568841931,1.97584,1.61556569577,212.0,1372
1423689547604000665,2.07772292322,5.09172,2.37014691003,1.97584,1.21988904052,212.0,1372
1423689547720329998,2.08104609477,5.1142,2.31724444491,2.03176,1.87972376247,218.0,1372
1423689547838458998,2.09164372903,5.13668,2.27609914753,2.03176,1.6764815983,218.0,1372
1423689547956684331,2.09999991021,5.15916,2.26063195592,2.03176,0.918601767305,218.0,1372
1423689548074207331,2.09999990214,5.18164,2.20145838332,2.03176,0.918602499409,218.0,1371
1423689548194648331,2.09999990214,5.20412,2.18398753566,2.03176,0.918602499408,218.0,1371
1423689548313424998,2.09999990214,5.2266,2.28435914366,2.06904,0.918602499408,222.0,1371
1423689548432382331,2.09999990214,5.23784,2.33141644185,2.06904,0.918602499408,222.0,1371
1423689548549477331,2.09999990214,5.26032,2.32797385388,2.08768,0.918602499408,224.0,1371
1423689548667360998,2.09999990214,5.27156,2.30149949468,2.08768,0.918602499408,224.0,1371
1423689548785884331,2.09999990214,5.29404,2.29645359377,2.10632,0.918602499408,226.0,1371
1423689548904714665,2.09999990214,5.30528,2.27035453972,2.10632,0.918602499408,226.0,1371
1423689549023764998,2.09999990214,5.32776,2.28976040124,2.1436,0.918602499408,230.0,1371
1423689549140494331,2.09999990214,5.339,2.26366420874,2.1436,0.918602499408,230.0,1371
1423689549257479331,2.09999990214,5.36148,2.29125313112,2.1436,0.918602499408,230.0,1371
1423689549376653998,2.09999990214,5.37272,2.25444568583,2.19952,0.918602499408,236.0,1372
1423689549499681998,2.09999990214,5.3952,2.28053085435,2.19952,0.918602499408,236.0,1372
1423689549617267998,2.09999990214,5.40644,2.24093659407,2.21816,0.918602499408,238.0,1372
1423689549734722331,2.09999990214,5.42892,2.26950137558,2.21816,0.918602499408,238.0,1372
1423689549850890332,2.09999990214,5.46264,2.31169017017,2.2368,0.918602499408,240.0,1373
1423689549967679331,2.09999990214,5.48512,2.27355195035,2.2368,0.918602499408,240.0,1373
1423689550084577665,2.09999990214,5.49636,2.2830445491,2.25544,0.918602499408,242.0,1373
1423689550202708332,2.09999990214,5.5076,2.23665360284,2.25544,0.918602499408,242.0,1374
1423689550319856998,2.09999990214,5.53008,2.2444086271,2.25544,0.918602499408,242.0,1374
1423689550436491331,2.09999990214,5.55256,2.31672659893,2.25544,0.918602499408,242.0,1375
1423689550553933665,2.09999990214,5.57504,2.37276458393,2.25544,0.918602499408,242.0,1375
1423689550676227665,2.09999990214,5.58628,2.33783590274,2.25544,0.918602499408,242.0,1375
1423689550792834998,2.09999990214,5.59752,2.25506100515,2.27408,0.918602499408,244.0,1376
1423689550914025665,2.09999990214,5.62,2.2571941927,2.27408,0.918602499408,244.0,1376
1423689551031508332,2.09999990214,5.64248,2.31388013074,2.27408,0.918602499408,244.0,1377
1423689551148478331,2.09999990214,5.6762,2.4228636545,2.27408,0.757163072567,244.0,1377
1423689551268231665,2.098220031,5.68744,2.34836398436,2.2368,1.08003131263,240.0,1377
1423689551386726998,2.09999990384,5.72116,2.37881274773,2.2368,0.918602345346,240.0,1378
1423689551507189998,2.09999990214,5.74364,2.33834173715,2.2368,0.918602499408,240.0,1378
1423689551625217998,2.09999990214,5.81108,2.39524654749,2.2368,0.918602499408,240.0,1378
1423689551742257998,2.09999990214,5.8448,2.45592662118,2.2368,0.445128839988,240.0,1379
1423689551857632998,2.09477985076,5.88976,2.507437689,2.21816,-0.300121810833,238.0,1379
1423689551979528665,2.08134375204,5.92348,2.56221937359,2.21816,-0.934689646301,238.0,1379
1423689552098242331,2.06091243153,5.96844,2.56690310571,2.21816,-0.447153559931,238.0,1380
1423689552213781332,2.04585755992,6.0134,2.57251638187,2.21816,-0.141128725036,238.0,1380
1423689552330456331,2.03417761514,6.05836,2.56033895928,2.19952,0.426921628417,236.0,1380
1423689552446711665,2.02876120665,6.10332,2.55349761798,2.19952,0.726602021852,236.0,1381
1423689552564845998,2.02664913698,6.14828,2.51459035656,2.18088,1.62172452861,234.0,1381
1423689552679835665,2.03440594288,6.19324,2.5133430198,2.18088,1.48587202664,234.0,1382
1423689552797007331,2.04066445891,6.2382,2.51259547663,2.19952,1.38046089628,236.0,1382
1423689552914141332,2.04576040071,6.2944,2.58296572915,2.19952,-0.237828420195,236.0,1382
1423689553029694331,2.0330143472,6.32812,2.51106671555,2.19952,1.67284131694,236.0,1383
1423689553146096332,2.04133429401,6.37308,2.46133750839,2.19952,2.6166199232,236.0,1383
1423689553262918998,2.06005885756,6.42928,2.53347280112,2.19952,0.600102972758,236.0,1383
1423689553382936665,2.05655005676,6.463,2.46762071596,2.16224,2.20756916492,232.0,1384
1423689553500410331,2.07076382025,6.53044,2.61001814913,2.16224,-1.33943647544,232.0,1384
1423689553616286998,2.04587086552,6.56416,2.49153991666,2.1436,2.0183534529,230.0,1384
1423689553732475665,2.05799923368,6.6316,2.43438758417,2.1436,3.16259777154,230.0,1384
1423689553848822998,2.08274210059,6.67656,2.28578787454,2.1436,2.48383184877,230.0,1384
1423689553965825665,2.09999991908,6.71028,2.39206130465,2.1436,0.918600962788,230.0,1385
1423689554082641332,2.09999990214,6.75524,2.48706295715,2.1436,0.918602499409,230.0,1385
1423689554197647332,2.09999990214,6.78896,2.56685788573,2.1436,-0.807944962762,230.0,1385
1423689554313364332,2.08096470052,6.82268,2.53737785554,2.06904,0.364705351483,222.0,1385
1423689554429128665,2.07485924782,6.8564,2.47396321169,2.06904,2.11439606444,222.0,1385
1423689554546064998,2.08804455853,6.89012,2.41576677704,2.06904,2.00291525968,222.0,1385
1423689554663059665,2.09999991377,6.92384,2.42759584479,2.0504,0.918601445076,220.0,1385
1423689554781583665,2.09999990214,6.93508,2.34048362151,2.0504,0.918602499409,220.0,1385
1423689554899490665,2.09999990214,6.95756,2.27078068537,2.0504,0.918602499408,220.0,1384
1423689555017798665,2.09999990214,6.9688,2.20693302145,2.0504,0.918602499408,220.0,1384
1423689555134746665,2.09999990214,6.99128,2.23778172287,2.03176,0.918602499408,218.0,1384
1423689555250901998,2.09999990214,6.99128,2.1571031861,2.03176,0.918602499408,218.0,1384
1423689555367139332,2.09999990214,7.00252,2.139014647,2.03176,0.918602499408,218.0,1384
1423689555484161665,2.09999990214,7.00252,2.09112808517,1.99448,0.918602499408,214.0,1384
1423689555605651665,2.09999990214,7.00252,2.0599692709,1.99448,0.918602499408,214.0,1383
1423689555726316332,2.09999990214,7.00252,2.05876743254,1.99448,0.918602499408,214.0,1383
1423689555843794998,2.09999990214,7.00252,2.07495654608,1.99448,0.918602499408,214.0,1383
1423689555961430665,2.09999990214,6.99128,2.07812722805,1.99448,0.918602499408,214.0,1383
1423689556078180998,2.09999990214,6.98004,1.99798028578,1.97584,0.918602499408,212.0,1383
1423689556194395665,2.09999990214,6.98004,1.97489684605,1.97584,0.918602499408,212.0,1382
1423689556313018665,2.09999990214,6.9688,2.0056228747,1.93856,0.918602499408,208.0,1382
1423689556431318998,2.09999990214,6.95756,1.98456739564,1.93856,0.918602499408,208.0,1382
1423689556551676998,2.09999990214,6.94632,1.96534513494,1.93856,0.918602499408,208.0,1381
1423689556673952665,2.09999990214,6.93508,1.95592766448,1.91992,0.918602499408,206.0,1381
1423689556791725332,2.09999990214,6.9126,1.88826520004,1.91992,0.521202691589,206.0,1380
1423689556909255998,2.09561856567,6.87888,1.76030916396,1.91992,-6.22838756783,206.0,1380
1423689557027394998,2.01682322184,6.82268,1.51557655858,1.91992,-6.2283897828,206.0,1380
1423689557143775332,1.93803307407,6.8002,1.53146820143,1.90128,-6.22838889358,204.0,1380
1423689557261529665,1.85924812202,6.75524,1.46834358481,1.90128,-6.22838490079,204.0,1380
1423689557378670665,1.78046836535,6.71028,1.36412180828,1.90128,-6.22837780503,204.0,1380
1423689557502062998,1.70169380371,6.65408,1.2054546792,1.91992,-6.22836760691,206.0,1380
1423689557620435998,1.62292443678,6.55292,1.04688151936,1.91992,-6.22835430706,206.0,1381
1423689557739213332,1.54416026421,6.48548,0.979609037403,1.93856,-6.22833790609,208.0,1382
1423689557858336332,1.46540128565,6.42928,0.779165695763,1.93856,-6.22831840461,208.0,1383
1423689557975928665,1.38664750077,6.3506,0.591322173851,1.93856,-6.22829580324,208.0,1384
1423689558092888332,1.30789890923,6.28316,0.434268724711,1.90128,-6.22827010258,204.0,1386
1423689558214393665,1.22915551069,6.21572,0.362431330431,1.90128,-6.22824130325,204.0,1387
1423689558332930332,1.1504173048,6.14828,0.332798514393,1.78944,-6.22820940587,192.0,1389
1423689558453269332,1.07168429123,6.09208,0.375290457687,1.78944,-6.22817441105,192.0,1391
1423689558571392332,0.99295646963,6.03588,0.416889047316,1.78944,-6.22813631939,192.0,1392
1423689558690125665,0.91423383967,5.99092,0.483950423649,1.71488,-6.22809513152,184.0,1394
1423689558805781665,0.835516401006,5.94596,0.487694688524,1.71488,-6.22805084805,184.0,1396
1423689558921644665,0.756804153296,5.91224,0.492117546999,1.71488,-1.35202002075,184.0,1399
1423689559048351998,0.731855051438,5.86728,0.376774337341,1.60304,-6.22798780566,172.0,1401
1423689559166627332,0.653149639593,5.8448,0.425499518556,1.60304,1.64060439147,172.0,1403
1423689559283743998,0.661200484326,5.81108,0.51333704168,1.60304,4.44924605218,172.0,1405
1423689559400479665,0.700216270935,5.79984,0.522478244018,1.47256,4.44922031558,158.0,1407
1423689559517764332,0.739229472651,5.7886,0.589279408509,1.47256,4.44919534172,158.0,1409
1423689559634557332,0.778240089648,5.7886,0.693477899459,1.47256,4.44917113046,158.0,1411
1423689559753045998,0.817248122097,5.7886,0.830731625489,1.47256,4.44914768164,158.0,1412
1423689559870259332,0.856253570169,5.7886,0.920220710713,1.26752,4.44912499512,136.0,1413
1423689559986755332,0.895256434037,5.7886,0.957803034542,1.26752,4.44910307073,136.0,1414
1423689560103353332,0.934256713872,5.7886,0.969656944286,1.26752,4.44908190833,136.0,1415
1423689560220191998,0.973254409846,5.79984,1.04432292693,1.26752,4.44906150777,136.0,1416
1423689560337115998,1.01224952213,5.82232,1.20842508129,1.04384,4.44904186889,112.0,1416
1423689560454082665,1.0512420509,5.8448,1.35006985601,1.04384,4.44902299155,112.0,1416
1423689560572288998,1.09023199632,5.86728,1.41632063015,1.04384,4.4490048756,112.0,1416
1423689560689306665,1.12921935856,5.901,1.50452040546,1.04384,4.44898752087,112.0,1416
1423689560809463666,1.16820413781,5.92348,1.48367607705,1.04384,4.44897092723,112.0,1416
1423689560927040000,1.20718633422,5.9572,1.51798547627,0.0,4.44895509452,0.0,1413
1423689561044133333,1.24616594797,5.99092,1.55536302853,0.0,4.44894002259,0.0,1410
1423689561161893333,1.28514297924,6.0696,1.69152038144,0.70832,4.44892571128,76.0,1409
1423689561279160666,1.32411742819,6.11456,1.74540395699,0.70832,4.44891216045,76.0,1408
1423689561400189333,1.36308929499,6.14828,1.83570755977,0.70832,4.44889936995,76.0,1406
1423689561514756000,1.40205857983,6.182,1.82494653301,0.70832,4.44888733963,76.0,1405
1423689561638474666,1.44102528286,6.21572,1.82214967575,0.0,4.44887606933,0.0,1403
1423689561756713333,1.47998940426,6.2382,1.79868235158,0.0,4.4488655589,0.0,1399
1423689561873836333,1.5189509442,6.27192,1.80518282307,0.0,4.44885580819,0.0,1396
1423689561991662000,1.55790990286,6.28316,1.74769569528,0.67104,4.44884681706,72.0,1394
1423689562109314666,1.5968662804,6.30564,1.74067006816,0.67104,4.44883858534,72.0,1392
1423689562226558000,1.635820077,6.30564,1.66882295551,0.67104,4.4488311129,72.0,1390
1423689562345958333,1.67477129282,6.31688,1.68038808022,0.67104,4.44882439957,72.0,1388
1423689562461261667,1.71371992805,6.31688,1.68385937947,0.0,4.44881844521,0.0,1385
1423689562579541000,1.75266598284,6.31688,1.70563669916,0.95064,4.44881324967,102.0,1383
1423689562696677666,1.79160945738,6.31688,1.75241931393,0.95064,4.4488088128,102.0,1381
1423689562813281667,1.83055035183,6.30564,1.73317445429,0.95064,4.44880513444,102.0,1379
1423689562929601000,1.86948866637,6.27192,1.71579064538,0.95064,3.71465882235,102.0,1377
1423689563046920333,1.90033045926,6.24944,1.65420292726,1.23024,-2.75398507289,132.0,1376
1423689563166411333,1.85985333398,6.182,1.53544097544,1.23024,-6.22838494329,132.0,1374
1423689563281616667,1.7810735374,6.1258,1.15977607025,1.23024,-6.22837787136,132.0,1373
1423689563398111666,1.70229893586,6.04712,0.869526585205,1.56576,-6.22836769708,168.0,1373
1423689563514907000,1.62352952902,5.96844,0.626348342816,1.56576,-6.22835442106,168.0,1373
1423689563638562000,1.54476531655,5.87852,0.461614898765,1.56576,-6.22833804391,168.0,1373
1423689563755257000,1.46600629809,5.7886,0.293891696301,1.7708,-6.22831856624,190.0,1373
1423689563872069667,1.38725247331,5.70992,0.331507792681,1.7708,-6.22829598868,190.0,1374
1423689563988902000,1.30850384188,5.60876,0.292676935024,1.864,-6.22827031183,200.0,1375
1423689564107017000,1.22976040344,5.53008,0.316697863963,1.864,-6.2282415363,200.0,1377
1423689564228513000,1.15102215767,5.41768,0.123863029395,1.864,-6.22820966272,200.0,1378
1423689564345736000,1.07228910421,5.32776,0.0833258212586,1.88264,-6.22817469168,202.0,1380
1423689564464110000,0.993561242727,5.23784,0.139577292314,1.88264,-6.22813662382,202.0,1382
1423689564582606333,0.914838572886,5.1704,0.261752632672,1.84536,-6.22809545973,198.0,1385
1423689564698669333,0.836121094342,5.06924,0.0940797661605,1.84536,-6.22805120003,198.0,1387
1423689564815721333,0.757408806757,4.91188,0.0382911561226,1.84536,-6.22800384534,198.0,1390
1423689564936813000,0.67870170979,4.8332,0.0,1.71488,-6.22795339627,184.0,1392
1423689565055025000,0.5999998031,4.777,0.0,1.71488,-6.22789985342,184.0,1395
1423689565170931334,0.521303086348,4.7208,0.0,1.71488,-6.22784321742,184.0,1397
1423689565288128000,0.442611559193,4.67584,0.0,1.5844,-6.22778348887,170.0,1400
1423689565407646667,0.363925221296,4.61964,0.0,1.5844,-6.22772066839,170.0,1403
1423689565523985333,0.285244072316,4.56344,0.0,1.5844,-4.27665874642,170.0,1406
1423689565641358334,0.228077965188,4.50724,0.0,1.43528,-0.130151748085,154.0,1409
1423689565756509667,0.21663058542,4.45104,0.0,1.43528,0.594140714605,154.0,1412
1423689565872559334,0.213169220783,4.37236,0.0,1.43528,0.661922537065,154.0,1415
1423689565989386667,0.210455349923,4.30492,0.0,1.43528,0.69873452296,154.0,1418
1423689566105692333,0.208147486302,4.22624,0.0,1.2116,0.675761750231,130.0,1421
1423689566221971000,0.205586476269,4.14756,0.0,1.2116,0.669124867909,130.0,1423
1423689566338989667,0.202952438265,4.06888,0.0,1.2116,0.665386963048,130.0,1425
1423689566454384667,0.200277337772,3.97896,0.0,1.2116,0.633879138689,130.0,1428
1423689566578615333,0.197255011922,3.88904,0.0,0.0,0.624371766784,0.0,1429
1423689566694165333,0.194128036582,3.8216,0.0,0.91336,0.676457728573,98.0,1430
1423689566813306667,0.191575488032,3.68672,0.0,0.91336,0.512064773978,98.0,1431
1423689566928845000,0.187210640017,3.63052,0.0,0.91336,0.67413940051,98.0,1433
1423689567045637000,0.184632920299,3.57432,0.0,0.91336,0.708455067909,98.0,1435
1423689567161080667,0.182433677744,3.52936,0.0,0.0,0.744238939422,0.0,1434
1423689567279635000,0.180629078124,3.49564,0.0,0.0,0.781107632716,0.0,1434
1423689567394647667,0.179231059499,3.47316,0.0,0.0,0.818826207265,0.0,1434
1423689567511283667,0.178248969039,3.45068,0.0,0.0,0.827366976127,0.0,1433
1423689567627797333,0.177361096209,3.43944,0.0,0.0,0.859011051823,0.0,1433
1423689567743899667,0.176822151168,3.43944,0.0,0.0,0.896325032819,0.0,1432
1423689567859684333,0.176694625411,3.43944,0.0,0.0,0.905155088785,0.0,1432
1423689567975498333,0.176664458744,3.43944,0.0,0.0,0.907243913339,0.0,1432
1423689568092750667,0.176657323195,3.43944,0.0,0.0,0.907738001195,0.0,1431
1423689568210642333,0.176655635397,3.43944,0.0,0.0,0.907854869786,0.0,1431
1423689568326795667,0.176655236177,3.43944,0.0,0.0,0.907882513056,0.0,1430
1423689568442463667,0.176655141749,3.43944,0.0,0.0,0.907889051592,0.0,1430
1423689568564463000,0.176655119413,3.43944,0.0,0.0,0.907890598169,0.0,1430
1423689568680888000,0.17665511413,3.43944,0.0,0.0,0.907890963985,0.0,1429
1423689568797156333,0.17665511288,3.43944,0.0,0.0,0.907891050512,0.0,1429
1423689568913274000,0.176655112585,3.43944,0.0,0.0,0.907891070979,0.0,1428
1423689569029350000,0.176655112515,3.43944,0.0,0.0,0.90789107582,0.0,1428
1423689569144741334,0.176655112498,3.43944,0.0,0.0,0.907891076965,0.0,1428
1423689569262307000,0.176655112495,3.43944,0.0,0.0,0.907891077236,0.0,1427
1423689569379027333,0.176655112494,3.43944,0.0,0.0,0.9078910773,0.0,1427
1423689569500231000,0.176655112493,3.43944,0.0,0.0,0.907891077315,0.0,1427
1423689569616853333,0.176655112493,3.43944,0.0,0.0,0.907891077319,0.0,1426
1423689569732850334,0.176655112493,3.43944,0.0,0.0,0.907891077319,0.0,1426
1423689569848934333,0.176655112493,3.43944,0.0,0.0,0.90789107732,0.0,1425
1423689569965519667,0.176655112493,3.43944,0.0,0.0,0.90789107732,0.0,1425
1423689570084579000,0.176655112493,3.43944,0.0,0.0,0.90789107732,0.0,1425
1423689570201327667,0.176655112493,3.43944,0.0,0.0,0.90789107732,0.0,1424
1423689570318014667,0.176655112493,3.43944,0.0,0.0,0.90789107732,0.0,1424
1423689570434884667,0.176655112493,3.43944,0.0,0.0,0.90789107732,0.0,1423
1423689570553714334,0.176655112493,3.4282,0.0,0.0,0.87796221162,0.0,1423
1423689570674277667,0.176325144818,3.4282,0.0,0.0,0.900787954414,0.0,1423
1423689570790466333,0.17624685094,3.4282,0.0,0.0,0.90620428162,0.0,1422
1423689570908174000,0.176228276811,3.4282,0.0,0.0,0.90748924613,0.0,1422
1423689571025928667,0.176223870541,3.4282,0.0,0.0,0.907794074322,0.0,1421
1423689571145777667,0.176222825268,3.4282,0.0,0.0,0.907866386902,0.0,1421
1423689571263359000,0.176222577305,3.4282,0.0,0.0,0.907883541135,0.0,1421
1423689571380694000,0.176222518483,3.4282,0.0,0.0,0.907887610518,0.0,1420
1423689571495991000,0.176222504529,3.4282,0.0,0.0,0.907888575869,0.0,1420
1423689571616736000,0.176222501218,3.41696,0.0,0.0,0.877929400149,0.0,1420
1423689571732988000,0.175892196062,3.41696,0.0,0.0,0.900757800254,0.0,1419
1423689571851951000,0.17581359402,3.41696,0.0,0.0,0.9061905235,0.0,1419
